,ID,Name,Address,Birth Date,City,Created At,Email,Latitude,Longitude,Password,Source,State,Zip
0,1,Hudson Borer,9611-9809 West Rosedale Road,1986-12-12,Wood River,2017-10-07T01:34:35.462+05:30,borer-hudson@yahoo.com,40.71314890000001,-98.5259864,ccca881f-3e4b-4e5c-8336-354103604af6,Twitter,NE,68883
1,2,Domenica Williamson,101 4th Street,1967-06-10,Searsboro,2018-04-09T12:10:05.167+05:30,williamson-domenica@yahoo.com,41.5813224,-92.6991321,eafc45bf-cf8e-4c96-ab35-ce44d0021597,Affiliate,IA,50242
2,3,Lina Heaney,29494 Anderson Drive,1961-12-18,Sandstone,2017-06-27T06:06:20.625+05:30,lina.heaney@yahoo.com,46.11973039999999,-92.8416108,36f67891-34e5-4439-a8a4-2d9246775ff8,Facebook,MN,55072
3,4,Arnold Adams,2-7900 Cuerno Verde Road,1992-08-12,Rye,2019-02-21T13:59:15.348+05:30,adams.arnold@gmail.com,37.9202933,-104.9726909,537a727b-7525-44a3-99c8-8fdc488fbf02,Google,CO,81069
4,5,Dominique Leffler,761 Fish Hill Road,1974-04-20,Beaver Dams,2017-09-05T03:36:44.811+05:30,leffler.dominique@hotmail.com,42.348954,-77.056681,6a802b6c-4da8-4881-9ca6-4f69085c7c14,Twitter,NY,14812
5,6,Rene Muller,1243 West Whitney Street,1983-03-27,Morse,2016-09-22T10:08:29.599+05:30,rene.muller@gmail.com,30.1514772,-92.4861786,760495fb-9c38-4351-a6ee-4743d10d345e,Google,LA,70559
6,7,Roselyn Bosco,630 Coaker Road,1996-01-19,Leakesville,2018-05-24T06:18:20.069+05:30,bosco.roselyn@hotmail.com,31.2341055,-88.5856948,43adf4af-055b-4a39-bc06-489fb0ffcf40,Facebook,MS,39451
7,8,Aracely Jenkins,1167 East 570th Avenue,1973-06-05,Pittsburg,2017-08-18T02:55:11.873+05:30,aracely.jenkins@gmail.com,37.43472089999999,-94.6426865,6bb01b7f-6426-47d3-bfca-95dcc42b8b27,Facebook,KS,66762
8,9,Anais Ward,5816-5894 280th Street,1999-10-16,Ida Grove,2018-10-13T23:52:56.176+05:30,ward.anais@gmail.com,42.29790209999999,-95.4673587,a3de5208-2f2f-4c81-9fe7-8d254bd5095d,Twitter,IA,51445
9,10,Tressa White,13081-13217 Main Street,1968-01-13,Upper Sandusky,2018-08-16T12:16:30.307+05:30,white.tressa@yahoo.com,40.8006673,-83.2838391,81052233-b32e-43cb-9505-700dbd8d3fca,Google,OH,43351
10,11,Lolita Schaefer,495 Juniper Road,1982-08-20,Pilot Mound,2018-03-19T07:17:22.759+05:30,schaefer-lolita@hotmail.com,42.1394217,-93.982366,ceddd766-924b-4856-9dcb-a15b4c1b154c,Facebook,IA,50223
11,12,Ciara Larson,16701-16743 449th Avenue,1982-12-16,Florence,2018-06-27T17:25:24.344+05:30,ciara-larson@hotmail.com,44.9564152,-97.2287266,eb925d11-ea2f-41fb-a490-72b7c2b24dc0,Facebook,SD,57235
12,13,Mustafa Thiel,2993 Hoskings Ranch Road,1963-07-20,Santa Ysabel,2017-09-21T16:21:06.408+05:30,mustafa.thiel@hotmail.com,33.08172,-116.661853,bb85c7fa-4314-4e41-a060-7d0159f16931,Facebook,CA,92070
13,14,Lavonne Senger,3964 Chico River Road,1963-09-22,Chico,2018-06-17T23:29:39.271+05:30,senger.lavonne@yahoo.com,39.6485802,-121.9343322,8beebcc9-a376-447a-812f-7544fdc52ec7,Facebook,CA,95928
14,15,Bertrand Romaguera,258 Opal Road,2000-02-14,El Paso,2018-12-20T17:50:32.296+05:30,romaguera.bertrand@gmail.com,35.1080351,-92.0101859,2734ae7a-aa25-4907-9d2e-a6992750db60,Twitter,AR,72045
15,16,Khalid Pouros,3234 County Road 7,1961-09-16,Greensboro,2016-05-14T23:44:56.182+05:30,khalid-pouros@yahoo.com,32.7042678,-87.54135959999999,e60e4c1e-c9dc-47fe-9f4b-138651cebd85,Google,AL,36744
16,17,Lora Cronin,6111 Rogue Riv,1990-02-16,Gold Beach,2017-03-05T20:38:57.437+05:30,lora-cronin@gmail.com,42.5048529,-124.1878367,1b414387-e9c0-4b97-ba60-263268e38f3d,Organic,OR,97444
17,18,Arely Pollich,13116 Northeast Sandy Boulevard,1990-06-27,Portland,2017-04-25T20:11:39.430+05:30,pollich-arely@yahoo.com,45.554885,-122.5277436,251cd4bd-d7c9-4704-a864-edd953952a9b,Affiliate,OR,97230
18,19,Wyman Kertzmann,1460 Grays Creek Road,1975-07-23,Grants Pass,2018-12-03T07:27:47.569+05:30,wyman-kertzmann@gmail.com,42.3222669,-123.324017,89ef82c4-55e2-4907-94a6-09b0368b3c58,Affiliate,OR,97527
19,20,John Aufderhar,52737 570th Street,1991-10-26,Marne,2018-10-12T23:32:17.853+05:30,aufderhar.john@yahoo.com,41.466973,-95.1012128,edd767f7-ef71-42bf-807e-f96fdee4b7b4,Affiliate,IA,51552
20,21,Angela Botsford,2002-2078 North J Road,1999-07-17,Phillips,2017-06-07T03:02:25.602+05:30,angela-botsford@hotmail.com,40.9764889,-98.1325441,4d4e6ab3-88a9-462f-9244-80d1865b31b1,Twitter,NE,68865
21,22,Jeromy Smith,1165 Rimrock Drive,1967-02-16,Napa,2017-09-29T21:34:43.775+05:30,jeromy.smith@yahoo.com,38.5063378,-122.1878842,5858bd6f-7731-4e39-a506-f5e29419785a,Twitter,CA,94558
22,23,Candida Kiehn,2003 Brigham Landing Road,1971-08-06,Girard,2017-04-16T01:10:35.969+05:30,kiehn-candida@yahoo.com,33.0854659,-81.67635899999999,8e866dca-3fa2-4c1d-aeaa-cf0a2642ce95,Facebook,GA,30426
23,24,Nya Weber,20930 Sugar Hills Road,1971-01-13,Cohasset,2019-01-26T06:39:38.701+05:30,weber-nya@gmail.com,47.1794946,-93.6321358,07401ce0-ed0d-406d-b370-4aa0945a6196,Facebook,MN,55721
24,25,Araceli Stiedemann,1201-2099 Plumberosa Drive,1979-02-05,Fayetteville,2016-08-16T02:51:36.698+05:30,stiedemann.araceli@yahoo.com,36.0479853,-94.2026572,51421352-6fdf-456e-93c9-41875c275480,Twitter,AR,72701
25,26,Dagmar Fay,19480 Happy Creek Road,1962-07-20,Winnemucca,2016-10-03T08:40:35.686+05:30,dagmar.fay@gmail.com,41.4720902,-118.346273,c754f596-48c4-4857-9000-8ea132605d6e,Organic,NV,89445
26,27,Kyler Abshire,2398-2558 Township Highway 249,1989-09-27,Arcadia,2017-04-05T16:05:38.485+05:30,kyler.abshire@yahoo.com,41.1278979,-83.5359594,179376b7-cb5e-4a61-990a-7fa5df7c1e8a,Organic,OH,44804
27,28,Keon Cartwright,355 Road 2538,1991-10-25,Baldwyn,2017-05-05T07:29:27.053+05:30,keon-cartwright@hotmail.com,34.4325826,-88.5702919,b9245148-1f98-4410-89ea-ec4035d97c19,Affiliate,MS,38824
28,29,Broderick Lockman,5125 Duffy Road Southeast,1990-09-09,Lancaster,2019-01-28T10:06:09.056+05:30,broderick-lockman@gmail.com,39.6955024,-82.5027112,38b3c74d-9d98-4547-94b9-9bcac3d5a762,Facebook,OH,43130
29,30,Desiree Walsh,13-99 Deberry Levee Road,1988-02-23,DeWitt,2016-12-09T04:07:48.891+05:30,walsh-desiree@gmail.com,34.3125434,-91.20821,20634749-9fa0-4ffe-8f9c-c7cb1c3d5e82,Affiliate,AR,72042
30,31,Cleora Hilll,2303 Christianson Hill Road,1995-02-02,Houston,2019-04-05T20:13:51.205+05:30,cleora.hilll@hotmail.com,43.80686660000001,-91.6359614,866c311b-f3b4-4752-a199-0ec05072a730,Affiliate,MN,55943
31,32,Jayden Hamill,6101 County Road CC67,1967-05-23,Pueblo,2018-02-25T03:42:16.554+05:30,jayden.hamill@gmail.com,37.94777029999999,-104.8778192,473f01a2-ea14-4782-ab69-0f7ab4e561a4,Google,CO,81004
32,33,Alphonso Quigley,33430 Danver Trail,1997-04-20,Steamboat Springs,2018-08-16T19:08:43.814+05:30,alphonso-quigley@yahoo.com,40.3372992,-106.7981696,c07018ad-28b4-48da-a707-f513a5969d92,Affiliate,CO,80487
33,34,Emilie Goyette,3349 Holly Springs Road,1966-05-25,Amissville,2019-01-13T05:02:49.513+05:30,goyette-emilie@yahoo.com,38.656887,-77.975854,2ef33e82-9576-41c2-986e-777703a014f8,Organic,VA,20106
34,35,Chelsey Schuppe,N1962 County Road K,1984-03-19,Sharon,2018-12-07T20:44:08.982+05:30,schuppe-chelsey@hotmail.com,42.5616569,-88.677537,6aa1e263-6496-4e45-802e-eadeb123f420,Twitter,WI,53585
35,36,Kaley Ziemann,244-298 Northwest 180 Road,1967-10-31,Hoisington,2017-10-13T05:18:15.329+05:30,ziemann-kaley@yahoo.com,38.6232452,-98.8225441,51d4f8b2-71d3-4378-a7a0-46f22472cc26,Organic,KS,67544
36,37,Jaleel Collins,3210-3298 West Overton Road,1978-10-10,Tucson,2017-02-05T06:39:15.958+05:30,jaleel.collins@gmail.com,32.3735889,-111.03742,608dbb0f-a21e-43bb-9688-5a1f5d3bf8cd,Facebook,AZ,85742
37,38,Cecilia Stark,155 Cow Creek Road,1981-12-16,Hurricane,2016-11-22T01:11:34.237+05:30,cecilia.stark@hotmail.com,38.4920821,-82.0002696,b3f69b9a-5221-4708-87ca-6aad41dceb43,Facebook,WV,25526
38,39,Andreanne Hills,618 150th Avenue,1988-04-26,Edgerton,2018-04-02T13:07:05.644+05:30,andreanne-hills@yahoo.com,43.9393467,-96.1592993,8893e779-0875-4325-a795-0ca65555530d,Organic,MN,56128
39,40,Elyssa Wolf,171 Olive Oyle Lane,1978-09-04,Dale,2017-03-06T00:54:32.105+05:30,wolf.elyssa@hotmail.com,29.99592,-97.5590129,48eb05e6-8c28-46d0-a072-e4ad3191182d,Google,TX,78616
40,41,Bernadine Gorczany,31619 Silverado Lane,1984-03-24,Waukee,2018-05-24T16:27:39.250+05:30,bernadine.gorczany@hotmail.com,41.539616,-93.874784,059d446f-2382-4891-9099-79bc4c61023f,Google,IA,50263
41,42,Reyes Strosin,30379-30383 Herbrecht Road,1992-05-23,Watertown,2017-04-12T08:31:53.943+05:30,reyes-strosin@yahoo.com,44.10684560000001,-75.9958097,b5cf239e-3f04-4301-8356-e43da503553a,Google,NY,13601
42,43,Chaya Volkman,18001-18999 North Morrion,1962-09-14,Dike,2017-06-04T06:12:21.524+05:30,volkman.chaya@hotmail.com,42.43880739999999,-92.6713936,3f43356b-8191-4fd4-86a9-435020c483b5,Twitter,IA,50624
43,44,Carroll Kohler,4251-4389 485th Avenue,1999-03-19,Mallard,2017-01-04T22:28:00.846+05:30,carroll.kohler@hotmail.com,43.0246186,-94.6294178,a0b2035f-6e00-4119-943a-c60b79f7534e,Facebook,IA,50562
44,45,Gilbert Abbott,28001-28599 180th Street,1963-03-23,Columbus Junction,2016-09-26T21:46:48.626+05:30,abbott-gilbert@yahoo.com,41.3221172,-91.474861,5633576b-48aa-49fa-af06-6ac1614b4a05,Organic,IA,52738
45,46,Kaleb Swaniawski,15000-15312 Crooked Road Northeast,1996-02-13,Kalkaska,2019-01-25T15:35:57.868+05:30,swaniawski-kaleb@gmail.com,44.8540315,-84.87710150000001,db1bc340-a201-476f-ad9a-44356b84a9c6,Twitter,MI,49646
46,47,Bradley Green,111 Leupp Road,1980-06-16,Flagstaff,2018-01-24T01:29:29.570+05:30,bradley.green@yahoo.com,35.337122,-111.3635,28ddc3ee-1fb6-4d0a-8437-20be81626311,Organic,AZ,86004
47,48,Logan Weber,1260 29th Road,1988-06-22,Morrowville,2017-11-24T10:23:11.878+05:30,logan-weber@yahoo.com,39.9879628,-97.1458337,04858e53-e1dd-4d0d-b241-2484abe833fc,Organic,KS,66958
48,49,Zane Koelpin,6043 County Road 30,1967-07-11,Reeds,2018-09-17T22:24:49.195+05:30,zane.koelpin@gmail.com,37.1382857,-94.112196,6d25201f-e1ae-4bd3-99e1-f8e75e69e664,Twitter,MO,64859
49,50,Stacy Wisozk,12751-12799 57th Street Northeast,1967-05-14,Fordville,2018-01-24T04:24:23.117+05:30,wisozk.stacy@gmail.com,48.2384345,-97.8693755,f36e9fca-558b-41fe-bc9d-7b1b135ef1c6,Twitter,ND,58231
50,51,Alvah Wilderman,21421 U.S. 82,1965-06-12,Carrollton,2018-02-19T22:11:18.349+05:30,wilderman.alvah@hotmail.com,33.493444,-89.8906564,e1c1ff81-c916-4fe8-9577-fe774f96efb2,Twitter,MS,38917
51,52,Velma Little,1110 Puckett Road,1982-10-24,Auburn,2018-05-30T01:41:33.498+05:30,velma-little@yahoo.com,34.057083,-83.81534099999999,31c95579-f89a-4c37-b223-2f1d43345eb0,Google,GA,30011
52,53,Nikolas Romaguera,1380 Juba Road,1974-04-22,Pontotoc,2018-09-08T15:36:34.933+05:30,nikolas.romaguera@yahoo.com,34.272145,-89.185783,5f0d66d8-10c1-4752-b91d-9797393fe529,Facebook,MS,38863
53,54,Davin Stamm,87245 590 Avenue,1971-10-08,Waterbury,2017-02-20T12:34:10.172+05:30,stamm.davin@yahoo.com,42.324103,-96.7454261,7b4ab172-e59a-44e8-942d-fc6b0935e7eb,Affiliate,NE,68785
54,55,Holly Bayer,373 Lee Loop Road,1987-01-16,Union Springs,2017-10-13T10:43:37.775+05:30,holly-bayer@gmail.com,32.1412409,-85.6383022,fd98d21a-e468-46f8-9306-8bd3c68a11bb,Affiliate,AL,36089
55,56,Seth Willms,22842 County Road 15,1969-05-12,Haxtun,2017-07-03T10:09:11.172+05:30,willms.seth@gmail.com,40.5974724,-102.5311932,63ac48ea-98ca-4904-a786-2d6c51f2876f,Google,CO,80731
56,57,Jordy Haag,35378 South Road,1979-11-13,Kendrick,2018-01-15T16:03:53.401+05:30,haag-jordy@yahoo.com,46.578927,-116.537937,a2e708b6-6c18-4ad1-a295-dfac2622bc05,Twitter,ID,83537
57,58,Dawson Kovacek,174 Kentucky 1554,1983-09-10,Owensboro,2016-06-02T12:04:04.932+05:30,kovacek-dawson@hotmail.com,37.8205743,-87.2486685,20aaf730-4fae-4ee8-ba9e-c346dd5de4a8,Facebook,KY,42301
58,59,Hugh Hahn,3405 Brittain Road,1966-07-26,Fort Garland,2017-01-14T18:35:24.646+05:30,hahn.hugh@hotmail.com,37.4230302,-105.3720874,00280947-bea4-4fec-883b-2d7be7e5baa6,Organic,CO,81133
59,60,Edgardo Hackett,1826 Paddle Creek Road,1996-10-31,Fort Gay,2016-11-23T22:26:35.223+05:30,edgardo-hackett@hotmail.com,38.111944,-82.5399396,00878241-0268-4419-8f3f-2c9df0079ed4,Twitter,WV,25514
60,61,Lina Labadie,7100 Hudson Chapel Road,1984-03-28,Catawba,2016-06-05T04:03:53.196+05:30,labadie.lina@gmail.com,35.69917,-81.017265,2da78e08-2bf7-41b8-a737-1acd815fb99c,Google,NC,28609
61,62,Angelica Zulauf,12055 Gandy Boulevard North,1985-10-17,Saint Petersburg,2016-12-13T01:31:33.122+05:30,zulauf.angelica@hotmail.com,27.872096,-82.61317000000001,425a725e-dcff-4815-9f35-71af7fc81a85,Affiliate,FL,33702
62,63,Delilah Stoltenberg,1725 300th Street,1997-01-18,Spencer,2018-11-04T22:17:41.314+05:30,delilah-stoltenberg@yahoo.com,43.21093399999999,-95.246965,e8fc2150-456d-414c-9c58-dde640d39325,Organic,IA,51301
63,64,Terrence Grimes,207 Grenadier Drive,1968-11-19,DeRuyter,2019-02-15T17:14:42.121+05:30,grimes-terrence@gmail.com,42.723496,-75.856499,384c582a-c1b0-4a80-817d-848f6f48cc7e,Affiliate,NY,13052
64,65,Arne O'Hara,18630 Old Marcus Road,1979-09-09,Howes,2016-12-09T03:04:22.934+05:30,arne-o-hara@gmail.com,44.7004251,-102.1931175,6d446a9c-d3e7-488a-9276-0d8710a9642b,Facebook,SD,57748
65,66,Gladys Dare,6568 Pine Grove Road,1994-01-05,Glenfield,2016-09-01T00:07:14.935+05:30,gladys-dare@gmail.com,43.763995,-75.38189799999999,386893ea-73bc-4354-b00d-bdf90cf09384,Twitter,NY,13343
66,67,Keyon Stroman,19 Riverfront Drive C Street,1987-12-10,Chignik Lake,2018-06-10T04:00:13.756+05:30,stroman-keyon@yahoo.com,56.26086710000001,-158.7019256,abe5fdbc-f0c5-4b1e-93fc-31eddf430246,Affiliate,AK,99548
67,68,Colton Hauck,449-499 County Road 400 West,1963-11-21,Rockport,2016-05-11T01:47:39.768+05:30,colton-hauck@yahoo.com,37.89017339999999,-87.1323259,5303b9a1-7784-4b45-8ee7-019e44298d2d,Affiliate,IN,47635
68,69,Anibal Hansen,2508-2520 Hancock Avenue,1969-10-06,Moville,2017-09-02T01:06:17.749+05:30,hansen.anibal@yahoo.com,42.3420983,-96.0377865,d498d3dc-de10-4b26-a286-1ff4f01c2210,Facebook,IA,51039
69,70,Maya Berge,84975 Nebraska 7,1993-12-21,Ainsworth,2016-07-03T07:13:18.736+05:30,maya-berge@hotmail.com,42.1362931,-99.8663091,1446f729-049c-49b2-8827-a235b24f82c0,Twitter,NE,69210
70,71,Lillian Green,3801-4099 North Fork Highway,1968-05-11,Cody,2016-06-12T09:38:56.272+05:30,lillian-green@yahoo.com,44.500381,-109.2863821,d1f42495-9414-4320-afd1-a6a79d2fcacd,Affiliate,WY,82414
71,72,Eula O'Connell,28367 Florida 69,1961-12-24,Grand Ridge,2017-06-21T19:44:11.459+05:30,eula-connell-o@hotmail.com,30.604401,-85.02780299999999,62d6360c-787a-488e-846e-f9cf285f0ac8,Facebook,FL,32442
72,73,Stan Hessel,28-50 Hawks Road,1968-08-06,Shelburne Falls,2018-08-04T01:00:21.537+05:30,stan-hessel@hotmail.com,42.5549457,-72.6583358,196f7102-5eef-42ce-bd0c-f5de4ec84bad,Organic,MA,1370
73,74,Jarret Marvin,350 East North Street,1968-12-18,Rushville,2019-02-25T14:34:03.624+05:30,marvin-jarret@gmail.com,39.6293759,-85.3744045,90eeb0ae-fc40-4363-8fb0-c70492b70fab,Twitter,IN,46173
74,75,Isobel Fadel,30682 291st Street,1994-11-21,Winner,2018-06-26T16:37:10.620+05:30,fadel.isobel@gmail.com,43.1848428,-100.033216,9fe6681e-47ad-44ba-a006-b9f1e9d691b1,Affiliate,SD,57580
75,76,Amiya Considine,600 Hight Moore Road,1970-05-01,Noxapater,2017-08-11T06:15:00.193+05:30,considine-amiya@yahoo.com,32.9558013,-89.0665798,fd121428-25c3-46e6-9cc3-2b400f2d9365,Google,MS,39346
76,77,Felipe Wilkinson,1436 Tom Cat Trail,1988-03-08,London,2018-02-11T11:19:04.661+05:30,felipe-wilkinson@hotmail.com,37.1228826,-83.99708249999999,dd1d35d1-8110-4981-9c2f-fc345ad7cb57,Organic,KY,40741
77,78,Keenan Schaefer,4333 Madison Road,1993-09-17,Three Forks,2016-05-13T19:16:26.609+05:30,schaefer.keenan@gmail.com,45.838178,-111.495663,b3300eb8-da2d-46c4-9d0a-0ee51053746b,Affiliate,MT,59752
78,79,Palma Volkman,4797 Central Florida Parkway,1990-03-15,Orlando,2019-02-25T02:59:37.635+05:30,volkman.palma@gmail.com,28.412059,-81.43779599999999,36d740f1-bda3-4337-838d-1b26fd947815,Google,FL,32821
79,80,Wilhelm Willms,101-1299 Mosley Street,1992-01-06,Commerce,2018-02-17T00:14:58.886+05:30,willms.wilhelm@gmail.com,33.2513235,-95.8858184,61a12c12-b0a3-4cf1-8f14-ed83d3f8cbb3,Twitter,TX,75428
80,81,Curt Baumbach,6913 168th Street Northeast,1962-09-10,Arlington,2017-12-29T20:40:13.534+05:30,baumbach-curt@hotmail.com,48.14901099999999,-122.137382,8da294bb-9403-4a8e-be7f-d56414bf3c16,Facebook,WA,98223
81,82,Macy Olson,15079-15327 Readings Road,1971-09-20,Siloam Springs,2016-08-09T02:12:21.860+05:30,macy.olson@gmail.com,36.2020785,-94.4309788,f8fb1605-5bb2-4386-8f92-6da57da52e90,Organic,AR,72761
82,83,Theresa Kertzmann,4 Hc 69,1989-08-30,Chinook,2016-07-17T19:55:33.107+05:30,kertzmann.theresa@hotmail.com,48.6052737,-109.2199464,12bf8161-daa0-4cba-afc3-fe7b104fa060,Facebook,MT,59523
83,84,Dorris Frami,2787 North 300 East,1963-03-08,Peru,2017-11-23T13:05:31.918+05:30,frami.dorris@hotmail.com,40.8042019,-86.01402499999999,0c33e8e5-b610-4959-9097-618f6bd70a86,Google,IN,46970
84,85,Vernice Steuber,21-89 Lyons Hill Road,1971-06-03,Gill,2018-05-24T23:42:11.490+05:30,steuber-vernice@yahoo.com,42.6392077,-72.50279499999999,9c3cf0b1-f405-427f-89af-4209f4f121e4,Google,MA,1354
85,86,Oda Brakus,17300 View Drive,1981-06-22,Cottonwood,2017-08-11T01:11:33.681+05:30,oda-brakus@hotmail.com,40.29595,-122.440831,c0a9ba4f-c877-4caf-81d8-3b7713b2406d,Twitter,CA,96022
86,87,Heber Vandervort,9665 Pat Drive,1983-09-24,Klamath Falls,2018-04-28T02:15:31.735+05:30,heber.vandervort@hotmail.com,42.167971,-121.867448,e959b1c4-c4a6-4cee-b1db-4fc3928b6977,Google,OR,97601
87,88,Breanne Schiller,2 Site 7,1999-03-01,Hoopa,2017-11-29T15:32:30.829+05:30,breanne-schiller@gmail.com,41.350309,-123.84852,836461db-b4ed-496d-a688-019478331cf0,Google,CA,95546
88,89,Durward Ledner,17779 Walnut Road,1989-07-31,Brownsville,2017-02-10T20:18:20.336+05:30,ledner.durward@hotmail.com,43.5903545,-91.3314929,98946a17-196b-4529-809c-0774ed46f150,Affiliate,MN,55919
89,90,Scarlett Beahan,2190 East Grand Avenue,1991-09-02,Hot Springs,2017-08-23T17:19:09.974+05:30,scarlett.beahan@yahoo.com,34.505161,-93.006959,b15ed850-8163-4335-a85e-6d8846ec7750,Twitter,AR,71901
90,91,Myrtis Labadie,292-386 County Road 206,1973-01-19,Pecos,2018-07-02T15:32:49.235+05:30,myrtis.labadie@yahoo.com,31.36935089999999,-103.5827313,09321f33-f0ba-4f30-adfe-51506b665c09,Google,TX,79772
91,92,Tatyana Steuber,29883 412th Avenue,1992-10-05,Avon,2018-08-01T23:51:53.521+05:30,tatyana-steuber@hotmail.com,43.0570164,-97.9539025,d8d1e11c-26bd-4928-8b2d-6ebd2877fcf5,Twitter,SD,57315
92,93,Broderick Wintheiser,25890 Holstein Avenue,1961-01-25,Wasilla,2016-12-07T01:29:05.878+05:30,wintheiser-broderick@yahoo.com,61.37213,-150.098354,a6f5a36e-2f57-44cb-bdb3-7e2625eace19,Affiliate,AK,99654
93,94,Armando Herzog,11105 North Old Highway 97,1972-06-19,Madras,2019-03-24T23:00:11.114+05:30,armando-herzog@hotmail.com,44.7873093,-120.934635,43645a1c-3e28-45f0-9888-d4fcf3354901,Affiliate,OR,97741
94,95,Aurelie Spinka,25611 South Carman Road,1960-06-05,Cheney,2018-09-16T01:38:03.356+05:30,aurelie-spinka@gmail.com,47.4154041,-117.7767551,3c9956eb-e0ed-485b-95ca-4b046ca35856,Organic,WA,99004
95,96,Ayden Heller,839 Bradley 60 Road,1963-05-08,Hermitage,2018-04-17T11:46:46.300+05:30,ayden-heller@yahoo.com,33.2537345,-92.1484057,32fe731f-9137-46f5-970e-e8e43c513943,Organic,AR,71647
96,97,Quentin Leannon,11821 West Lincoln Avenue,1999-05-18,Fresno,2017-01-08T08:29:08.023+05:30,quentin.leannon@hotmail.com,36.64563400000001,-120.00331,424781b2-3944-4cb7-92b2-0511ab513157,Facebook,CA,93706
97,98,Lucas Beer,2329 Jackson Fork Road,1978-02-22,South Webster,2016-10-01T08:45:16.488+05:30,lucas-beer@gmail.com,38.8234,-82.6755,b02caa74-76bc-4e4e-9d8e-f56b404c6dd9,Google,OH,45682
98,99,Alicia Cormier,2160 Settler Road,1959-01-31,Craigmont,2017-09-14T14:33:34.897+05:30,cormier.alicia@yahoo.com,46.331827,-116.2924427,35a62981-457f-4f79-9803-019da8d8a82a,Organic,ID,83523
99,100,Nels Heaney,6088 Meiss Road,1995-05-12,Glenfield,2017-07-22T22:34:34.054+05:30,heaney.nels@yahoo.com,43.7130017,-75.43909099999999,8ec74bdb-98d2-4e4c-ab82-dce89bb16876,Organic,NY,13343
100,101,Beryl Reichel,3118 South 1938 Road,1964-01-09,Rich Hill,2017-02-06T14:48:26.038+05:30,reichel.beryl@yahoo.com,38.0319159,-94.2752332,3353794d-8f0b-4d9f-b148-990897a39954,Twitter,MO,64779
101,102,Kade Kub,550 Rock Creek Road,1982-09-02,Clinton,2018-08-18T10:33:33.219+05:30,kade-kub@hotmail.com,46.6588404,-113.6540732,cbca34d6-acf8-47d6-9052-3fbf16557954,Facebook,MT,59825
102,103,Jayce Hilpert,16780 14th Street Northeast,1978-06-06,Buxton,2017-05-08T23:00:11.699+05:30,hilpert-jayce@yahoo.com,47.6128237,-96.9681621,a220e645-0b5c-49fa-acfa-cde85ef48141,Facebook,ND,58218
103,104,Briana Kuphal,6183 Old Dixie Highway,1991-06-11,Evensville,2018-10-13T04:04:46.165+05:30,kuphal-briana@yahoo.com,35.598895,-84.83532799999999,0e663ad6-aafe-49ce-80b0-7603e5cdf4b6,Twitter,TN,37332
104,105,Carleton Effertz,3135 Sanhedrin Road,1966-06-09,Elk Creek,2016-11-20T00:33:39.454+05:30,carleton.effertz@gmail.com,39.6135899,-122.5711026,19b6d8be-ba3c-4d66-b871-312d06460803,Facebook,CA,95939
105,106,Rosina O'Connell,1701-1999 West County Road 850 North,1979-06-02,Lizton,2016-08-24T20:29:03.767+05:30,rosina.connell.o@hotmail.com,39.8863642,-86.5583394,5f5abb40-bcc8-4b83-a6ad-0527eb5aa397,Google,IN,46149
106,107,Verla O'Kon,48502-48654 150th Avenue,1986-02-23,Pocahontas,2018-01-06T09:37:51.068+05:30,verla.kon.o@gmail.com,42.7814427,-94.8164443,eb128872-4a4c-4157-a26c-d76072121467,Affiliate,IA,50574
107,108,Archibald Von,5706 Farm to Market 1743,1969-01-03,Windom,2017-06-21T12:13:50.422+05:30,von-archibald@yahoo.com,33.509668,-96.032372,8c2daa24-2d3a-445f-a22d-82e8e0cea91a,Facebook,TX,75492
108,109,Anais Dare,271 West Comet Road,1962-08-26,Clinton,2018-11-21T14:08:42.986+05:30,dare.anais@yahoo.com,40.919299,-81.545908,044c199b-a129-4c98-aeae-30e03f7da5a1,Google,OH,44216
109,110,Alexanne Wisoky,5361 East 700 South,1967-10-29,Brook,2016-08-17T17:37:43.247+05:30,wisoky-alexanne@yahoo.com,40.891452,-87.290014,d8bdb2e5-30d2-41bc-afa6-a75d585d8ae6,Google,IN,47922
110,111,Augustine Runolfsdottir,521-599 Louisiana 27,1997-06-10,Bell City,2016-08-17T22:37:21.854+05:30,runolfsdottir.augustine@gmail.com,30.0178145,-93.0878386,b16278c2-c9b5-4fb9-b212-d4d08992fab3,Google,LA,70630
111,112,Theresa Grant,370 North Street,1988-11-29,Maxwell,2018-10-28T23:54:56.658+05:30,theresa.grant@yahoo.com,39.2802275,-122.1971163,f31fbf5c-28fe-4284-ad4b-ebd3c4d42e4a,Google,CA,95955
112,113,Kathleen Quitzon,1711 Welliver Road,1965-02-20,Redstone,2017-04-18T01:30:18.921+05:30,kathleen-quitzon@yahoo.com,48.65539769999999,-104.9287866,a4fb4bfc-e010-4b54-9afb-1ec314afb34b,Google,MT,59257
113,114,Wilbert Greenfelder,1 A Point Pleasant Road,1966-11-29,Hopatcong,2017-12-05T06:44:47.206+05:30,greenfelder.wilbert@gmail.com,40.922515,-74.654822,206b8844-81ce-4346-8086-05bf0be8da64,Facebook,NJ,7843
114,115,Edwin Spencer,28161 FM 521 Road,1994-06-28,Angleton,2017-04-04T03:19:32.567+05:30,spencer.edwin@gmail.com,29.18861,-95.4850699,83cb3413-2234-420a-8441-9ec94b6e1092,Facebook,TX,77515
115,116,Jimmie Doyle,2020-2026 Rosebud Creek Road,1977-09-25,Forsyth,2018-11-13T06:15:45.065+05:30,doyle-jimmie@hotmail.com,46.13674779999999,-106.4627731,94713a13-e32d-4d12-bcbe-5bd42e0892da,Facebook,MT,59327
116,117,Hollis Hettinger,10237 Pennsylvania 285,1994-01-29,Conneaut Lake,2016-12-25T03:17:16.765+05:30,hollis-hettinger@gmail.com,41.6020003,-80.32627610000002,24758719-01af-4cab-b72b-31dbbda474ca,Organic,PA,16316
117,118,Diego Will,870 Marions Ferry Road,1976-05-29,Huntington,2017-01-25T06:51:18.563+05:30,diego.will@yahoo.com,31.3799326,-94.5245865,249ad114-7a7d-4637-a6ba-2a594bcc92ed,Affiliate,TX,75949
118,119,Makayla Heathcote,2945-2965 Gillsville Highway,1969-05-22,Gainesville,2017-01-24T00:23:29.500+05:30,heathcote.makayla@gmail.com,34.2667033,-83.7451529,98b4ee91-d74b-4fa4-af6f-af1b4ea5e61f,Facebook,GA,30507
119,120,Ashton Schmidt,538 Clark Street,1994-09-14,Gardner,2018-07-18T17:59:16.965+05:30,schmidt-ashton@yahoo.com,42.593775,-72.021141,dd3c2e18-bcab-4ac3-bd61-474874d9161d,Affiliate,MA,1440
120,121,Trace Morar,41706 280th Street,1971-05-29,Tripp,2017-04-01T10:59:22.343+05:30,morar-trace@yahoo.com,43.3301989,-97.8519453,7042ac4c-f5e2-476a-ba04-be1fcaada93c,Google,SD,57376
121,122,Brant Dare,31541 California 33,1984-11-15,Maricopa,2017-05-28T20:51:17.526+05:30,brant.dare@yahoo.com,34.75105,-119.427429,05f16e9e-4d96-479c-adf9-47f1c0cccdeb,Twitter,CA,93252
122,123,Gerald Hermiston,583 Pennsylvania 590,1996-06-17,Lackawaxen,2016-12-26T15:55:14.248+05:30,hermiston.gerald@yahoo.com,41.4658789,-74.9888927,534d6d52-6ab8-4c67-b0f4-8227804b6c0c,Affiliate,PA,18435
123,124,Franco O'Reilly,1451-1499 37th Street Northeast,1976-04-19,Larimore,2018-10-29T04:28:51.037+05:30,reilly.o.franco@yahoo.com,47.8845232,-97.6237067,f99f217f-1576-40eb-ae79-66c6d15d09a5,Affiliate,ND,58251
124,125,Geoffrey D'Amore,4801 Road Cce,1971-08-01,Ishpeming,2018-12-05T05:43:23.086+05:30,d-amore-geoffrey@yahoo.com,46.3580329,-87.829121,a32980cf-74d4-4c4b-8cb3-2e1363c12bb4,Facebook,MI,49849
125,126,Kris Yost,1188 Farm to Market Road 1702,1986-04-02,Dublin,2017-12-23T21:41:23.085+05:30,kris-yost@hotmail.com,31.921767,-98.324061,ff88704c-16f3-4c65-a40c-3d73d0aa64a0,Google,TX,76446
126,127,Hans Hagenes,9698-9912 North 700 West,1966-06-29,De Motte,2017-04-13T14:02:52.354+05:30,hans-hagenes@hotmail.com,41.1490825,-87.17967300000001,b8c3a9e9-6959-454f-9979-c319a9f3a964,Facebook,IN,46310
127,128,Jakob Kerluke,19045 County Road 15,1958-06-20,Del Norte,2018-06-02T23:08:28.628+05:30,kerluke.jakob@gmail.com,37.703053,-106.37448,319ef85e-e9b9-4213-99c7-689c795aec31,Organic,CO,81132
128,129,Grace Casper,8235 Nolin Dam Road,1992-05-04,Mammoth Cave,2018-11-17T04:32:34.950+05:30,casper-grace@hotmail.com,37.2630179,-86.1622465,3d899a08-c4ef-45f2-b63b-835ee8a65e86,Affiliate,KY,42259
129,130,Myrna Hickle,2919 Walker Creek Road,1974-06-08,Douglas,2018-06-24T22:46:10.946+05:30,hickle-myrna@hotmail.com,43.153337,-105.019411,5956d518-38f3-4ffb-9795-81eb5c5c77df,Google,WY,82633
130,131,Melisa Walter,5132 Wengers Mill Road,1968-05-26,Linville,2017-05-24T06:04:27.131+05:30,walter-melisa@gmail.com,38.5538818,-78.85508659999999,7d1d6af9-a100-457d-90b0-9279ce9f28b6,Facebook,VA,22834
131,132,Kenna Bailey,228 Abpp Drive,1961-11-22,Grant Town,2018-08-15T17:07:08.720+05:30,bailey.kenna@yahoo.com,39.561936,-80.161913,3c350b17-fca9-4cb3-a2d7-ca63cebe186d,Google,WV,26574
132,133,Christopher Hilll,281-699 East Duck Creek Road,1981-08-15,Circle,2016-11-03T10:16:39.135+05:30,christopher-hilll@hotmail.com,47.6208379,-105.3887932,7c3769fd-eb49-4e71-8d91-10a27beaf9d4,Facebook,MT,59215
133,134,Orie Bartoletti,8001-8783 Road 16 Northeast,1996-10-28,Moses Lake,2018-11-25T20:22:57.992+05:30,orie-bartoletti@yahoo.com,47.3232465,-119.309409,1bb690d2-78d8-4f34-99eb-a810af8f7a13,Twitter,WA,98837
134,135,Rhett Mante,"5509-5501,5500-5508 McKinley Avenue",1990-10-31,North Ridgeville,2019-03-11T14:38:56.147+05:30,rhett.mante@yahoo.com,41.414166,-81.9847444,20d499ac-bdba-4a93-ac5f-283b6891ae2f,Affiliate,OH,44039
135,136,Aliyah Stracke,9967-10311 Jinkins Road,1975-12-05,North Zulch,2018-09-22T03:56:02.886+05:30,aliyah-stracke@gmail.com,30.9388436,-96.0701413,4dc3f97b-eb39-4f83-8e6e-0466fa75f0c4,Twitter,TX,77872
136,137,Dayton Keebler,261 Pr 1138,1960-09-03,Texarkana,2018-08-30T04:37:59.772+05:30,keebler-dayton@yahoo.com,33.4107005,-93.8872518,51aacb02-9e1f-4e4a-9898-e2e6bd92b629,Google,AR,71854
137,138,Unique Runolfsson,3001-3099 170th Street,1975-04-16,Tracy,2018-07-10T15:31:58.363+05:30,runolfsson.unique@yahoo.com,44.297511,-95.6824956,93833de0-eb66-4472-9284-37c5f9c88d8f,Twitter,MN,56175
138,139,Norene Flatley,15024 Farm to Market 682,1995-08-02,Yoakum,2016-10-02T13:41:45.139+05:30,flatley-norene@yahoo.com,29.11341699999999,-97.021,317848f6-dd5a-4aae-856c-9c654a9ced25,Google,TX,77995
139,140,Walker Conroy,2933 Sarpy Avenue,1961-09-15,Baton Rouge,2017-08-06T18:33:59.321+05:30,walker.conroy@gmail.com,30.3817696,-91.1954073,d0f1949d-ab5f-4e0f-974c-e79befe38c32,Affiliate,LA,70820
140,141,Alvina Mertz,22087 Fishermans Haven Road Northeast,1994-07-17,Waskish,2017-10-15T12:51:15.271+05:30,alvina.mertz@gmail.com,48.205763,-94.5749173,74714dd7-898b-4b24-90a3-b20bddd48681,Facebook,MN,56685
141,142,Sheridan VonRueden,1855 190th Street,1993-10-27,Centuria,2018-10-13T17:07:33.679+05:30,vonrueden-sheridan@hotmail.com,45.4779624,-92.5522438,ae5ae49b-a040-4f04-bbe9-a3c9b0beecc0,Organic,WI,54824
142,143,Melyna Koepp,86229-86265 576th Avenue,1960-02-12,Wayne,2019-04-15T20:39:41.404+05:30,koepp-melyna@gmail.com,42.3285929,-97.0177941,2567dcd2-813d-4699-ba5a-62072c89922d,Twitter,NE,68787
143,144,Savanah Fahey,6956 Mount Aire Road,1992-07-17,Russellville,2017-04-27T12:26:50.072+05:30,savanah.fahey@gmail.com,38.827956,-83.75506399999999,6ccfd780-737d-4dfa-9f36-9e98df9dc5ba,Twitter,OH,45168
144,145,Aryanna Hegmann,2491 Miller Road,1975-05-09,Lincoln,2018-09-19T20:31:13.928+05:30,hegmann-aryanna@yahoo.com,44.728183,-83.4251333,0a5a1703-fca9-403a-aec2-39204ac8d944,Facebook,MI,48742
145,146,Trenton Batz,8840 Saint Clair Highway,1990-12-07,Casco,2017-01-25T15:38:48.021+05:30,trenton-batz@yahoo.com,42.7990559,-82.66714689999999,c310d2cc-0c7f-41f4-ab5f-69c77639c33a,Affiliate,MI,48064
146,147,Eileen Mayert,19500 Dovetail Court,1994-02-06,Tehachapi,2017-09-19T04:21:07.731+05:30,eileen-mayert@gmail.com,35.166327,-118.477387,c3a7228d-c34c-439e-bcf7-859e21c62e90,Facebook,CA,93561
147,148,Madie Bayer,268 County Road 454,1963-11-18,Greenwood,2019-03-14T19:24:03.026+05:30,madie.bayer@hotmail.com,33.6872507,-90.2063275,fcdc8af8-b425-4201-949e-2bf1277fd753,Organic,MS,38930
148,149,Madonna Kertzmann,1349 Prison Road,1995-06-16,Dillwyn,2016-10-22T23:06:29.646+05:30,kertzmann.madonna@hotmail.com,37.5746079,-78.47260849999999,87415991-9bc9-4d13-a1cf-1f2b51cdaa6b,Facebook,VA,23936
149,150,Henderson Hansen,1746 East Ashley Avenue,1959-02-06,Folly Beach,2018-08-01T23:26:54.142+05:30,hansen.henderson@hotmail.com,32.682146,-79.891785,f2becd2c-2974-4a52-8b8b-8bee86b12d3c,Facebook,SC,29439
150,151,Khalid McKenzie,820-872 Poison Lake Road,1996-10-19,Douglas,2018-09-02T16:01:26.304+05:30,khalid-mckenzie@gmail.com,42.6071945,-105.5102213,f83be753-f450-4ae4-8825-38f12a7ce560,Twitter,WY,82633
151,152,Ethan Kling,17401-17499 95th Street Southeast,1970-03-18,Fairmount,2017-02-13T01:55:28.151+05:30,kling-ethan@yahoo.com,46.0369948,-96.7549256,466b58f1-e0a2-4448-ba66-8eb632c74c0b,Facebook,ND,58030
152,153,Lewis Hoppe,314 Wisconsin 35,1967-12-22,River Falls,2017-06-19T00:42:58.426+05:30,hoppe.lewis@gmail.com,44.9074009,-92.65949,d2540b5e-456c-4713-a12d-85bde7881bd9,Google,WI,54022
153,154,Monserrate Schuppe,3331-3589 Ballard Road,1989-09-18,Bellvue,2017-04-24T20:30:21.960+05:30,schuppe-monserrate@gmail.com,40.5479816,-105.4740886,2fc7bb02-89e4-477c-a5dd-1a1f379f953a,Organic,CO,80512
154,155,Trisha Hoeger,5036 Airline Road,1982-02-04,Uniontown,2016-05-27T14:33:50.573+05:30,hoeger.trisha@yahoo.com,37.7530823,-87.9231926,9b1fb13f-2d4e-4885-bc2c-a5409af5a770,Affiliate,KY,42461
155,156,Lolita Zemlak,212 Park Street,1993-09-30,Jacksonville,2018-11-24T14:17:35.213+05:30,zemlak.lolita@yahoo.com,39.7320556,-90.2451991,32ad31ee-8982-49a0-9d38-0731f2fde18d,Twitter,IL,62650
156,157,Ferne Tremblay,1343 Davenport Road,1998-05-06,Columbia,2019-03-21T07:54:24.451+05:30,tremblay-ferne@yahoo.com,35.9255799,-76.302166,84cefc9a-4cbe-47ef-be8f-2340fe8a11b2,Affiliate,NC,27925
157,158,Maye Toy,19736-19746 County Road 581,1983-08-01,Essex,2016-06-29T14:57:13.224+05:30,toy-maye@yahoo.com,36.8939065,-89.78379319999999,823ba66f-724e-4e44-bac2-c4baf454da7e,Affiliate,MO,63846
158,159,Mattie Bayer,790 Echo Avenue,1982-03-01,Mechanicsville,2019-02-23T14:30:41.070+05:30,bayer-mattie@hotmail.com,41.8323487,-91.2776887,b59654b0-9d97-49de-b651-3a76caf453cd,Organic,IA,52306
159,160,Jordane Pacocha,10360 North 100 West,1968-03-17,Macy,2016-04-24T19:50:43.403+05:30,pacocha-jordane@hotmail.com,40.916432,-86.097224,8aed905d-6ba9-4047-ad7c-b21e8c21790d,Twitter,IN,46951
160,161,Rupert Ruecker,4119 Chambers County 173,1985-05-31,La Fayette,2017-09-07T16:54:14.657+05:30,rupert.ruecker@yahoo.com,32.782583,-85.3869612,1cb8e12b-f105-49c0-ba44-dee2f450bf11,Organic,AL,36862
161,162,Destiney Swaniawski,6738-6772 Ohio 162,1978-08-05,Attica,2018-03-16T01:57:51.290+05:30,swaniawski.destiney@hotmail.com,41.1256993,-82.8288503,bcfba4ab-f3ac-45d4-9b59-fa18b75bacb8,Twitter,OH,44807
162,163,Rowena Hodkiewicz,26046 West North River Road,1993-03-31,Hershey,2017-01-15T06:19:39.181+05:30,hodkiewicz.rowena@yahoo.com,41.31672040000001,-101.013686,e2ba8358-2d9a-4c59-9511-13d8ce95701d,Twitter,NE,69143
163,164,Sabryna Schumm,13271 West Splithand Road,1959-11-25,Grand Rapids,2016-06-05T17:23:19.975+05:30,sabryna-schumm@gmail.com,47.0765723,-93.5083726,34de5758-d333-4581-aec6-5d4ffdfc2b27,Facebook,MN,55744
164,165,Pattie Senger,735 Kelley Road,1962-11-18,Colquitt,2018-08-25T12:24:58.705+05:30,pattie.senger@yahoo.com,31.2316415,-84.5972409,eded5b02-9fdf-4112-9171-526fa75d0be3,Facebook,GA,39837
165,166,Carmelo Carter,9011 Kisser Road,1963-03-02,Onaway,2017-05-24T04:29:26.701+05:30,carter-carmelo@gmail.com,45.36304,-84.30846,1f2e15e4-5224-4c71-b6e2-3bfd4b890e2c,Google,MI,49765
166,167,Grady Sipes,4126 Smokey Creek Road,1993-07-11,Lenoir,2018-07-14T10:45:03.326+05:30,grady-sipes@yahoo.com,35.822889,-81.574767,36293cbf-4f42-458d-a3a3-524e82937cd5,Organic,NC,28645
167,168,Lucile Bednar,9872 County Road 132,1978-01-30,Somerville,2018-03-11T08:01:05.565+05:30,lucile-bednar@gmail.com,30.3280707,-96.7380668,101626a0-ce84-41da-9608-1aa36db2ef16,Google,TX,77879
168,169,Arnaldo Bartell,154-156 Cedar Street,1979-05-19,East Hampton,2018-10-30T11:09:22.485+05:30,arnaldo-bartell@gmail.com,40.9746726,-72.1968189,0c5c3328-6386-4239-82d5-b2567617bd09,Organic,NY,11937
169,170,Mohammed Beatty,671 Prairie Dale Road,1970-11-20,Ekalaka,2019-02-18T12:08:00.277+05:30,beatty.mohammed@gmail.com,45.82408,-104.30909,a3cde051-453e-4cd4-95b6-5624fb83ee49,Google,MT,59324
170,171,Raphael Wolff,3399 360th Avenue,1995-11-15,Lancaster,2016-08-23T12:12:45.464+05:30,raphael.wolff@hotmail.com,48.88848369999999,-96.6728171,ac3c8898-1e9d-46f7-8774-f1201cd03b26,Twitter,MN,56735
171,172,Maryam Weimann,1901-1999 Telephone Road,1996-12-17,Andrews,2017-07-30T10:45:43.878+05:30,weimann.maryam@gmail.com,32.3125762,-102.3958822,026813d5-d57a-4fe3-97c0-409eac126204,Facebook,TX,79714
172,173,Howard Gaylord,1246 Jarvis Road,1980-01-10,Wakeman,2017-12-25T23:39:38.418+05:30,howard-gaylord@hotmail.com,41.16777949999999,-82.43573289999999,f89ac090-ee1c-4e43-a038-ef38566cf92a,Google,OH,44889
173,174,Quentin Cummings,131764-132898 Homer-Klinefelter Road,1964-04-21,Needles,2018-12-22T19:51:22.627+05:30,quentin.cummings@gmail.com,34.8981079,-114.783128,a6aa3d77-6288-4aa8-acb0-3490611ba069,Facebook,CA,92363
174,175,Ernestina Gerhold,496 260th Street,1977-03-30,Ogden,2019-01-05T15:14:05.572+05:30,ernestina-gerhold@gmail.com,41.977433,-94.0696773,3d97a7ca-b22d-41ca-817d-7dde336a8560,Twitter,IA,50212
175,176,Rebeca Parisian,22711 Davis Drive,1992-09-08,Three Rivers,2017-02-18T22:17:15.588+05:30,rebeca.parisian@hotmail.com,42.0529562,-85.51435,a45af2df-431e-48c7-957c-484daec90660,Google,MI,49093
176,177,Nikko Haag,17411 Shannon Route,1978-02-27,Shannon,2018-01-25T11:17:45.623+05:30,nikko-haag@yahoo.com,42.1728599,-89.7458849,a7f76c0b-ec90-4c11-ad27-d278549a6a52,Google,IL,61078
177,178,Joanie Cruickshank,12759 Gurnsey Hollow Road,1973-11-28,Frewsburg,2018-01-03T09:30:48.697+05:30,joanie-cruickshank@yahoo.com,42.012186,-79.046403,ff36ba90-0678-4074-8590-4df924f31a5f,Organic,NY,14738
178,179,Van Windler,253 Par Road 2-75,1981-08-09,Ferriday,2018-12-17T21:22:17.185+05:30,van.windler@hotmail.com,31.6307641,-91.5771343,fa2ddb1e-73b6-428e-b115-deca2c317f86,Google,LA,71334
179,180,Wilma Roob,7059 Highway Bb,1984-07-29,La Russell,2018-06-23T16:31:50.696+05:30,wilma.roob@yahoo.com,37.17645479999999,-94.0074102,666e4ec9-fcda-4a00-9b4a-ae502037c6c2,Google,MO,64848
180,181,Evalyn Moen,15274 West Shields Avenue,1968-11-20,Kerman,2019-02-13T13:23:45.363+05:30,moen-evalyn@gmail.com,36.780462,-120.065853,44837bcd-5b10-4ea9-9683-2ba1877d2fa4,Twitter,CA,93630
181,182,Dana Orn,2051 Edmondson Road,1962-04-06,Cornersville,2018-08-23T05:07:20.262+05:30,dana-orn@hotmail.com,35.34071,-86.855531,c8f193d3-5942-47b1-ab71-5d0b7f8a7856,Twitter,TN,37047
182,183,Rodolfo Larkin,22 Snick Road,1960-08-20,Priest River,2018-03-06T18:40:12.499+05:30,larkin-rodolfo@yahoo.com,48.6032364,-116.9725721,8c1f2b24-ab80-45e1-847d-e569eab87418,Google,ID,83856
183,184,Jesse Daugherty,1073 Bailey Run Road,1960-02-12,Austin,2017-02-13T07:27:08.802+05:30,daugherty.jesse@yahoo.com,41.5309186,-78.083709,51bacfc1-7ead-4d97-9baf-48e100066d32,Organic,PA,16720
184,185,Audra Hane,21000 Spirit Lake Highway,1972-05-10,Toutle,2018-06-04T01:14:26.920+05:30,hane.audra@gmail.com,46.2863851,-122.2715574,70faed46-d7d2-45bb-bc70-a5ead44f5712,Organic,WA,98649
185,186,Caitlyn Dach,5460 Old River Road South,1964-10-04,Brooklet,2017-03-16T03:32:15.214+05:30,caitlyn-dach@gmail.com,32.376953,-81.519071,4048c24f-b840-46ca-b4a3-bfc7d97bb1c0,Organic,GA,30415
186,187,Bethel Schultz,79 North Of Highway,1977-12-23,Stanton,2017-09-11T01:48:59.251+05:30,bethel.schultz@gmail.com,35.5070479,-89.37359339999999,78a8a24a-84a0-468a-a80d-fd82f14c8743,Google,TN,38069
187,188,Leda Hammes,5331 116th Avenue Southwest,1998-07-28,New England,2017-01-29T18:13:19.615+05:30,leda-hammes@gmail.com,46.6409403,-102.8973443,36902615-1614-4b12-bc69-3b423362699d,Facebook,ND,58647
188,189,Vita Cummings,15584 Old 79,1985-11-25,New London,2019-03-23T18:08:31.925+05:30,cummings.vita@gmail.com,39.6049775,-91.3183488,875a376e-d265-4add-b3ff-8f337220d1d9,Google,MO,63459
189,190,Oswald Corwin,3044 Robinson Road,1975-09-03,Ulster,2017-02-03T20:40:32.774+05:30,oswald.corwin@gmail.com,41.8804234,-76.3494723,993f7188-b033-413d-b96b-ec2ac06b5be9,Facebook,PA,18850
190,191,Mustafa Steuber,24722 240th Avenue,1974-06-24,Cornell,2019-02-04T18:00:31.529+05:30,mustafa.steuber@gmail.com,45.193929,-91.1803149,50f07ef9-41f3-49e7-8ca5-c52f19b43971,Twitter,WI,54732
191,192,Haleigh Funk,365 Hickory Hill Road,1997-09-13,Varnville,2016-10-19T20:59:22.213+05:30,funk.haleigh@gmail.com,32.8449836,-81.0811368,0d3fac6e-ebb3-414c-af36-ff0ed9c8d1da,Affiliate,SC,29944
192,193,Berta Roob,219 Perry Road,1990-11-24,Louisville,2019-01-07T13:11:05.369+05:30,berta.roob@yahoo.com,33.1325727,-89.1536935,4da57153-2832-4380-906e-42d493fa3bff,Google,MS,39339
193,194,Destany Friesen,3914 Missouri 5,1959-03-04,Mansfield,2016-09-14T05:38:08.597+05:30,friesen-destany@hotmail.com,37.192428,-92.5357661,a8838ee7-9eed-4841-93c8-be26828a096d,Google,MO,65704
194,195,Green Carter,14b County Road H,1959-11-12,Richards,2018-09-11T14:17:36.441+05:30,green-carter@hotmail.com,37.9059184,-94.5065307,196978d2-aa00-4228-bded-cb2cb91f7ca4,Organic,MO,64778
195,196,Alvena Legros,2582-2640 North Al Harrison Road,1974-09-25,Nogales,2016-04-25T18:59:55.987+05:30,alvena-legros@hotmail.com,31.3797001,-110.9571969,44289e96-e802-4ac7-8a11-82b4896552f8,Organic,AZ,85621
196,197,Aletha Kertzmann,11206 Ruger Road,1989-10-29,Klamath Falls,2018-12-05T15:12:56.903+05:30,kertzmann.aletha@gmail.com,42.160778,-121.885837,1e5a011f-9bae-4b37-a1b7-3250774dba94,Affiliate,OR,97601
197,198,Tamara Sawayn,22331 312th Street,1993-06-23,Garber,2019-03-31T22:04:32.681+05:30,sawayn.tamara@yahoo.com,42.7741203,-91.2382421,eebc4fed-5c9d-4c95-8ec2-c2f5321f0008,Organic,IA,52048
198,199,Adan Weissnat,4633 Steamtown Road,1960-03-26,Ashley,2018-07-15T10:30:21.790+05:30,adan-weissnat@yahoo.com,40.39649,-82.979333,2f3c3a14-c69b-4f8d-976f-4ca629b7fc1d,Affiliate,OH,43003
199,200,Thalia Hirthe,26000-26670 County Road 7,1991-10-25,Wabasso,2019-01-09T16:10:02.883+05:30,thalia-hirthe@yahoo.com,44.4337856,-95.3307342,6f9a5379-14d0-4f9f-8085-0d14a16e7491,Organic,MN,56293
200,201,Ford Larkin,9998 Iliamna Village Road,1972-01-07,Iliamna,2017-04-03T10:26:55.580+05:30,larkin.ford@yahoo.com,59.75461900000001,-154.8722999,a79e3524-66bf-49ac-806e-2e9c8d9af2f0,Facebook,AK,99606
201,202,Delphia Price,136 State Highway RA,1994-09-14,Whitewater,2016-05-24T06:54:04.851+05:30,delphia.price@yahoo.com,37.2799922,-89.8329473,d0084604-249e-4373-af2d-02d60e9d4350,Affiliate,MO,63785
202,203,Jessika Treutel,5831 Moonglow Drive,1981-03-01,Beaumont,2018-09-06T23:06:25.908+05:30,treutel-jessika@yahoo.com,30.0020916,-94.2665475,a3d1dbe1-943c-4453-9f7a-ae0bb5bf24fc,Affiliate,TX,77713
203,204,Enos Donnelly,1631 Otto Staudt Road,1984-03-03,Fredericksburg,2017-02-07T05:19:12.761+05:30,enos-donnelly@hotmail.com,30.2060304,-99.0853849,c5420279-b6fa-41e7-b8e4-d9c2ab4fac8e,Twitter,TX,78624
204,205,Lowell Daniel,561 Little Sulphur Creek Road,1974-08-09,Big Sandy,2018-08-13T13:36:49.899+05:30,lowell-daniel@gmail.com,36.1941456,-87.98984159999999,86cfdbc6-5d5d-4c41-b342-4ef899cf51d5,Facebook,TN,38221
205,206,Marcelina Jast,5275 Road 203,1982-11-06,Lewellen,2018-11-18T00:48:38.998+05:30,marcelina.jast@hotmail.com,41.3768809,-102.1067028,7d97701e-d88c-4402-8a3a-746b9613fedf,Google,NE,69147
206,207,Earnest Huels,100 Main Street,1988-08-19,Sand Point,2017-03-17T02:08:54.356+05:30,huels-earnest@hotmail.com,55.294047,-160.6788618,ceb1d49d-4aae-43b1-8fab-cee81b5ce6e3,Organic,AK,99661
207,208,Alisha Deckow,4500-4758 East Euclid Street,1987-08-29,Royalton,2018-05-05T19:09:43.241+05:30,deckow.alisha@hotmail.com,37.8951407,-89.06417429999999,a69f09fa-1b4c-4e5f-a8e0-0c96879783f6,Affiliate,IL,62983
208,209,Kyleigh Beier,3832 West Sandwich Road,1968-08-12,Sandwich,2017-06-11T09:50:59.695+05:30,beier.kyleigh@gmail.com,41.686414,-88.634023,b8054617-807d-4fbb-a54e-ae9f2138a177,Organic,IL,60548
209,210,Earnestine Prohaska,22828-23086 County Road 25,1986-02-17,Damon,2017-05-03T13:28:06.011+05:30,prohaska-earnestine@gmail.com,29.2769731,-95.6041888,ea92bf35-1049-4d9e-ae4a-8150607bac85,Twitter,TX,77430
210,211,Quinn Stokes,35700-35792 181st Street,1976-07-30,Orient,2017-08-29T09:14:12.054+05:30,stokes-quinn@hotmail.com,44.7650241,-99.0478074,f93f124e-ce72-4a37-bc56-1cd378977eea,Organic,SD,57467
211,212,Jacinthe Rowe,761 County Road 191,1967-09-26,Westcliffe,2018-03-12T10:38:39.690+05:30,jacinthe-rowe@gmail.com,38.2021244,-105.6365082,9cbd0e7a-6637-4104-8d5f-c721f263f663,Organic,CO,81252
212,213,Connie Davis,2641 Tails Creek Church Road,1964-07-27,Ellijay,2018-09-29T10:35:00.433+05:30,connie.davis@yahoo.com,34.7160477,-84.6346884,68071762-d62d-4274-b036-3799f5a145b9,Google,GA,30540
213,214,Trace Daniel,19443 560th Avenue,1983-02-20,Austin,2017-02-21T15:03:21.819+05:30,trace-daniel@yahoo.com,43.6342315,-92.9345722,aece60e8-f737-44f2-bf87-446eaa9943bf,Affiliate,MN,55912
214,215,Benton McCullough,322 Medlan Chapel Road,1992-10-23,Graham,2018-08-14T00:47:42.605+05:30,benton.mccullough@hotmail.com,33.0768658,-98.6260044,4805247e-7cf2-4d15-af15-c64f5725ba6c,Organic,TX,76450
215,216,Josh Kilback,561 Sunlight Road,1969-10-17,Cody,2016-11-08T20:44:31.632+05:30,kilback-josh@yahoo.com,44.6974348,-109.6102857,951e2911-c8a9-405a-b4a8-28c97a305c48,Organic,WY,82414
216,217,Annabelle Schmeler,1668-1698 156th Street,1977-08-10,Slayton,2017-03-26T14:26:09.585+05:30,schmeler.annabelle@gmail.com,44.0728434,-95.7249308,4391972d-516e-4b39-965e-18e977066393,Facebook,MN,56172
217,218,Stan Jacobson,3620 South Magrudder Road,1967-05-20,St. Louis,2018-07-02T00:40:18.458+05:30,jacobson.stan@gmail.com,43.5026735,-84.5066867,cb1cbc73-1c23-4651-ada4-d0d1c537ae59,Affiliate,MI,48880
218,219,Isaias Spencer,191 Snake Meadow Road,1995-12-26,Killingly,2017-01-21T16:05:18.984+05:30,isaias.spencer@gmail.com,41.778891,-71.844071,1b5ab22a-9fb3-4b11-8a44-c92ffdc08121,Google,CT,6239
219,220,Bette Lang,13627 Rabbit Creek Place,1971-06-10,Reva,2016-07-18T08:45:45.612+05:30,bette-lang@gmail.com,45.42324980000001,-102.9816937,f449f05a-206c-46a1-b75b-0e90b84f3fd5,Organic,SD,57651
220,221,Seth Goldner,4960 U.S. 6,1965-02-05,Iowa City,2016-11-13T21:43:28.820+05:30,goldner-seth@yahoo.com,41.6072879,-91.447624,540f1f89-0c82-4e57-8fbc-1ab876761480,Twitter,IA,52240
221,222,Theodora Dibbert,17229 1st Street,1965-06-29,Chandler,2017-10-29T18:31:26.268+05:30,theodora-dibbert@gmail.com,43.8482247,-95.9080164,a24ca5b8-2622-4350-9b96-028cda62f85d,Twitter,MN,56122
222,223,Frederik Bosco,15 North Slope Haul Road,1993-07-30,Fairbanks,2016-12-08T10:22:24.943+05:30,frederik.bosco@yahoo.com,66.37241159999999,-150.4916213,bc0163cf-cb81-43e6-a6d1-76ff08389e9d,Twitter,AK,99701
223,224,Pamela Murray,17403 Kaylor Road,1996-08-03,Danville,2017-06-23T21:08:57.066+05:30,pamela-murray@hotmail.com,40.47705,-82.26044399999999,cf26e167-af00-40a2-9f09-a4abb287e5c8,Organic,OH,43014
224,225,Gunnar Doyle,3507-3745 Marlette Road,1995-09-14,Croswell,2018-11-03T15:25:17.824+05:30,doyle.gunnar@hotmail.com,43.339598,-82.67549059999999,8ef27737-ee74-44c7-891c-8245ef482ccb,Facebook,MI,48422
225,226,Breana Thiel,23248 County Highway 8,1984-10-28,Elbow Lake,2018-03-26T05:06:26.947+05:30,breana-thiel@gmail.com,45.9052449,-96.0412765,700e227a-669f-4f22-81ec-f9b1a25edc92,Google,MN,56531
226,227,Merl Yundt,100 Sunshine Lane,1964-03-06,Livingston,2016-05-02T19:13:31.027+05:30,yundt.merl@yahoo.com,30.7336771,-94.9438504,227f072d-d308-4459-8fa8-8ef8d7bd8606,Google,TX,77351
227,228,Estefania Leuschke,17791 Pee Dee Road North,1961-05-08,Galivants Ferry,2017-09-05T00:21:35.024+05:30,leuschke-estefania@yahoo.com,34.070783,-79.210173,03fc0838-6603-41a2-9a5f-6c430737461f,Twitter,SC,29544
228,229,Jewell Walker,1 Old Garrard Road,1972-02-16,Berea,2018-10-18T16:28:29.218+05:30,jewell-walker@gmail.com,37.530722,-84.34361249999999,08850155-d0d4-4ffc-846a-9b437d3cf7d4,Organic,KY,40403
229,230,Stacy Adams,N10285 490th Street,1988-03-03,Wheeler,2018-01-22T08:29:55.613+05:30,adams.stacy@gmail.com,45.0499174,-91.9176634,505b8e6a-0296-493c-b382-823bd33a4da8,Affiliate,WI,54772
230,231,Foster Marks,35498 Arizona 77,1999-01-11,Tucson,2016-12-12T07:28:47.670+05:30,foster-marks@yahoo.com,32.5545752,-110.9335244,46eb348f-1ba1-48d7-a2d1-a6f84612d14b,Affiliate,AZ,85739
231,232,Magnolia Hansen,19333 Texas 16,1982-04-10,Von Ormy,2016-06-13T14:44:05.919+05:30,hansen.magnolia@gmail.com,29.231494,-98.586746,15637b09-08c6-4e0e-bbbd-ce094fc93ca8,Twitter,TX,78073
232,233,Ulices Feil,38 Gene Roberts Drive,1990-03-23,Shubuta,2016-12-02T19:10:31.530+05:30,feil-ulices@hotmail.com,31.7874786,-88.7970596,17962e11-f3e5-47c3-b2b9-50d7bd78e39e,Affiliate,MS,39360
233,234,Bertrand Streich,37555 South Kaliak,1967-04-13,Talkeetna,2018-07-02T22:40:09.739+05:30,streich-bertrand@gmail.com,62.1421096,-149.9113851,d530eea1-2dc6-40ff-9bc6-ec72ce4c7d8d,Google,AK,99676
234,235,Jerrod King,14850 Smart-Cole Road,1959-06-28,Ostrander,2018-07-05T13:25:09.926+05:30,jerrod-king@yahoo.com,40.232191,-83.1745059,72703cfd-d36f-4bcb-b978-f46435654e29,Google,OH,43061
235,236,Doris Spencer,805 River Road,1986-12-01,Piedmont,2018-03-30T00:23:10.811+05:30,doris.spencer@yahoo.com,34.716032,-82.469116,9f7b0012-2913-4f30-a209-f75001b97e07,Twitter,SC,29673
236,237,Ernie Kohler,111 Poverty Pond Road,1986-09-02,Shapleigh,2019-01-18T02:48:33.281+05:30,kohler.ernie@yahoo.com,43.6307309,-70.8311294,99740779-26c4-4029-a6d9-d60e3b6192d9,Facebook,ME,4076
237,238,Derrick Walker,1711 Great Bend Turnpike,1970-03-08,Pleasant Mount,2016-10-10T13:09:10.299+05:30,walker-derrick@yahoo.com,41.7371709,-75.31117100000002,087909e2-2eb3-4b89-a5f6-ec7ad29e255c,Organic,PA,18453
238,239,Glenna Runolfsson,1861 Jasmine Road,1989-02-11,Sandy Level,2018-12-22T01:43:18.240+05:30,runolfsson-glenna@hotmail.com,37.01058099999999,-79.571281,1684c085-1e94-4fa7-8562-da3a1c0ced3f,Facebook,VA,24161
239,240,Anais Douglas,361 Leeds Road,1984-11-24,Elkton,2017-09-06T05:58:24.864+05:30,douglas.anais@hotmail.com,39.6546536,-75.89517219999999,719e2b90-8bb5-4b2f-ace1-926451a739c6,Twitter,MD,21921
240,241,Christiana Boyle,21250 Dentler Drive,1988-05-25,Three Rivers,2017-08-07T04:06:00.927+05:30,boyle-christiana@gmail.com,42.0185478,-85.5427941,269dee04-f819-400d-b3f4-6f4c0f97ca98,Twitter,MI,49093
241,242,Jaylin Hudson,1045 10th Avenue,1992-07-26,Woodstock,2018-09-01T21:40:00.942+05:30,jaylin.hudson@yahoo.com,44.0018723,-96.048399,9316dba6-6f33-4e11-b2a5-00af299309ab,Facebook,MN,56186
242,243,Paige Miller,2656 Fox Run,1999-02-10,Imperial,2016-11-17T14:22:22.700+05:30,miller.paige@gmail.com,38.390851,-90.4221929,00c345b3-7f21-4a55-ae0a-89d3c7d2d495,Google,MO,63052
243,244,Jessika Funk,3338 McCaskill Road,1960-03-01,Bethune,2016-09-21T03:51:11.583+05:30,jessika.funk@yahoo.com,34.442297,-80.412144,f9859f1f-ab16-4b1b-8d44-15f1cc05d7a1,Twitter,SC,29009
244,245,Adonis Will,3839 Mook-Centerview Road,1990-10-04,Hudson,2017-07-18T06:00:45.230+05:30,adonis.will@gmail.com,37.63756310000001,-86.3101248,ae734584-bb9f-485b-83fe-9007f23837d8,Organic,KY,40145
245,246,Francesca Gleason,17210 Scenic Drive,1970-05-01,Fall Creek,2019-02-26T21:14:07.581+05:30,francesca.gleason@gmail.com,44.8002186,-91.1806963,6855e6a9-4f97-4e78-9280-b17ff7ac686f,Affiliate,WI,54742
246,247,Stella Abbott,7470 Railroad Street Northeast,1986-05-02,Mount Sterling,2016-05-22T06:09:00.465+05:30,stella-abbott@yahoo.com,39.6528941,-83.3396202,c1ef5cea-b9b7-4182-85b5-f698ae692309,Google,OH,43143
247,248,Chanelle Cummings,550B U.S. 56,1978-10-22,Great Bend,2017-04-04T19:25:46.304+05:30,cummings.chanelle@yahoo.com,38.36489090000001,-98.6733377,b0ac4114-f639-4497-8ff7-8eaf2e5f3bed,Organic,KS,67530
248,249,Neva Langworth,18633 440th Street,1994-10-01,Holdingford,2017-12-26T21:15:03.347+05:30,neva-langworth@yahoo.com,45.75853559999999,-94.4943314,2001d596-65a0-4b5f-847f-3ee4bab83970,Twitter,MN,56340
249,250,Antwon Pagac,402 County Road 292,1994-11-29,Rising Star,2019-04-19T14:06:27.300+05:30,antwon.pagac@yahoo.com,32.173593,-98.9516475,86040e6f-dfae-43bf-a359-8d5a8a01c6e8,Google,TX,76471
250,251,Dominique Bergnaum,37 Country Knoll Drive,1967-07-15,Binghamton,2016-11-27T11:26:45.529+05:30,dominique.bergnaum@gmail.com,42.182373,-75.84169299999999,c47c602f-c571-47de-ae06-d9b86ca84244,Affiliate,NY,13901
251,252,Delphia Denesik,15285 Georgia 106,1966-10-16,Carnesville,2019-01-03T19:37:35.064+05:30,denesik-delphia@hotmail.com,34.4361918,-83.2612249,f4617d83-730e-4b25-bf4a-9959f9f3c1fa,Google,GA,30521
252,253,Kyla Zemlak,24217 Alihon Lane,1977-11-23,Hermosa,2017-03-18T22:21:04.806+05:30,kyla-zemlak@hotmail.com,43.8940625,-103.1231529,8816eb26-ef57-4665-8971-461b80e3884f,Twitter,SD,57744
253,254,Ramiro Green,488-998 West 100 North,1979-03-25,Reynolds,2018-11-27T17:13:39.522+05:30,ramiro-green@yahoo.com,40.7652004,-86.8898238,4fe810a5-4f32-4d6e-9188-0496d410f68f,Affiliate,IN,47980
254,255,Hudson Jacobi,463 Nowhere Road,1972-02-29,Axton,2018-01-21T06:07:22.390+05:30,hudson.jacobi@hotmail.com,36.7088456,-79.67940689999999,587032b4-385d-4081-9d33-83cbe077e91b,Affiliate,VA,24054
255,256,Rupert Walsh,20684 Claremont Road,1990-11-24,Carlinville,2018-03-11T04:16:52.070+05:30,walsh-rupert@hotmail.com,39.2996331,-89.8230667,f8e59d97-6389-4b67-b95b-00da47d56895,Twitter,IL,62626
256,257,Summer Aufderhar,6453 County Road 15,1960-12-23,Arlington,2017-03-24T13:31:45.360+05:30,summer.aufderhar@hotmail.com,41.4699166,-96.3151407,236a076e-a060-43f0-bc07-fc407b863e78,Facebook,NE,68002
257,258,Melvin Upton,1582 New York 162,1984-02-04,Sprakers,2018-04-21T02:15:00.378+05:30,upton.melvin@gmail.com,42.8194108,-74.4285355,5a3045fb-56d5-4183-b700-f427b426d214,Facebook,NY,12166
258,259,Krystel Boyle,818 State Highway 116 South,1999-01-25,Upton,2019-01-03T08:44:33.609+05:30,krystel.boyle@yahoo.com,44.0269598,-104.7325072,36e92b5e-0f91-4d81-96c0-f2e15778a97f,Affiliate,WY,82730
259,260,Lexie Franecki,9655 Old Post Road,1977-07-08,Texarkana,2018-04-16T07:49:22.824+05:30,franecki-lexie@gmail.com,33.4951893,-93.9307702,1a22ee42-9e02-4bbf-9d9d-c591365e2b31,Affiliate,AR,71854
260,261,Jaden Cole,208 Morris Road,1973-07-16,Sandusky,2016-11-29T12:30:23.737+05:30,cole.jaden@gmail.com,43.3445718,-82.8238781,f831e0c9-74f0-45db-ac6a-7f401a6cefd2,Google,MI,48471
261,262,Aaron Hand,224 Road 4900,1964-05-17,Hardy,2019-01-03T00:03:45.759+05:30,hand.aaron@hotmail.com,40.0203256,-97.8166682,1635c725-3196-41c8-9153-5cdf25fb5f96,Twitter,NE,68943
262,263,Ashlee Mertz,202 McCallie Ferry Road,1965-06-10,Soddy-Daisy,2018-11-06T09:56:39.198+05:30,ashlee.mertz@gmail.com,35.3401668,-85.1263524,07bfa567-df4a-40a5-9910-a41fbe6120d4,Facebook,TN,37379
263,264,Arno Bruen,80 158th Avenue Northeast,1978-05-11,Hillsboro,2019-03-30T02:59:19.139+05:30,bruen.arno@gmail.com,47.4284009,-97.1742982,a45c731a-8ab0-420c-9f7e-20bb5d7f7a0f,Facebook,ND,58045
264,265,Larry Weimann,2585 Galls Creek Road,1959-01-11,Gold Hill,2016-11-08T23:18:35.456+05:30,larry.weimann@gmail.com,42.38416,-123.078391,31445e35-aeb4-4bc5-8ae7-d29047170942,Google,OR,97525
265,266,Beau Rutherford,345 Johnson Run Road,1967-08-24,Blue Creek,2018-06-02T19:30:40.769+05:30,rutherford-beau@yahoo.com,38.716067,-83.340987,7aba2747-9d8c-4035-9015-7b5913ebcdbc,Google,OH,45616
266,267,Rogers Bode,56503 Paul Road,1997-09-09,Perdido,2017-09-28T05:53:24.965+05:30,bode-rogers@hotmail.com,31.049082,-87.716759,ab0f7cda-1ffb-4b8d-bd65-ef2b7b11b29b,Affiliate,AL,36562
267,268,Marvin Hegmann,15874 Red Shale Hill Road,1980-10-03,Pekin,2016-06-17T01:24:03.631+05:30,marvin-hegmann@hotmail.com,40.511278,-89.624106,9a3e1738-b4e0-42c6-8def-26d3acca9463,Facebook,IL,61554
268,269,Mara Prohaska,2901-2999 Texas 86,1991-08-01,Friona,2017-11-18T22:35:50.051+05:30,prohaska.mara@yahoo.com,34.5311922,-102.5352594,dc4d5a4d-0d83-426a-9953-6621090c29cd,Twitter,TX,79035
269,270,Chester Eichmann,85 June Lane,1994-12-05,Arley,2017-05-10T04:29:42.817+05:30,eichmann.chester@hotmail.com,34.0789972,-87.161383,b3a28fd2-67c7-4009-98c1-55c404d7f76d,Organic,AL,35541
270,271,Aurore Ryan,1100 Lydia's Canyon Road,1959-04-09,Glendale,2019-01-23T03:37:35.275+05:30,aurore.ryan@gmail.com,37.345752,-112.624213,f67ea451-9919-4285-8039-38c700d2fa44,Affiliate,UT,84729
271,272,Roy Paucek,758 H Road,1970-02-09,Cedar Point,2018-06-01T19:42:12.579+05:30,paucek.roy@gmail.com,38.1811093,-96.713141,7df31beb-7782-428f-91c8-f9b09fd5518b,Facebook,KS,66843
272,273,Jesus Bins,2278 Horned Owl Road,1962-08-31,Hiawatha,2017-01-19T11:19:32.628+05:30,bins-jesus@hotmail.com,39.8391125,-95.5968961,d4cee248-b74c-4eb5-a91a-dece6fd28b2d,Organic,KS,66434
273,274,Cameron Strosin,1220-1298 29th Street Northeast,1995-11-23,Anamoose,2017-10-19T22:49:30.607+05:30,strosin.cameron@gmail.com,47.8330014,-100.3183434,d7731bb2-e9bd-4a61-bc7d-dc68a945cecf,Facebook,ND,58710
274,275,Gabrielle Considine,8669 Valley Line Road,1970-04-27,Oconto Falls,2016-08-17T17:51:55.672+05:30,gabrielle-considine@yahoo.com,44.93645,-88.1927369,0a5baddc-62bb-4872-80da-06cea1870db5,Affiliate,WI,54154
275,276,Abbie Ryan,15819 Index-Galena Road,1971-12-30,Sultan,2017-01-04T21:32:18.737+05:30,abbie-ryan@hotmail.com,47.853634,-121.500764,d2665dd0-2a3e-4740-bbc5-94535556de91,Facebook,WA,98294
276,277,Ruthe Champlin,320 Priestford Road,1967-06-10,Churchville,2017-08-13T06:38:46.821+05:30,ruthe-champlin@gmail.com,39.573651,-76.264066,c7900850-1311-4cc6-94ca-4d13dafa5ab8,Affiliate,MD,21028
277,278,Fredrick Gulgowski,170 State Road S-42-1958,1989-02-21,Chesnee,2016-06-08T19:13:21.202+05:30,fredrick-gulgowski@yahoo.com,35.074197,-81.86616099999999,168423f6-df71-4fd9-b3c6-9671b8668546,Facebook,SC,29323
278,279,Orville Effertz,24590-24998 V Avenue,1969-08-27,Eldora,2017-05-19T10:06:33.245+05:30,orville-effertz@hotmail.com,42.3412681,-93.0848007,8881a3be-3a57-4181-a51b-fae074951d1c,Organic,IA,50627
279,280,Ryleigh Gleason,32997 County Road 193.5,1996-08-18,Kim,2018-06-08T01:00:49.909+05:30,ryleigh.gleason@gmail.com,37.4311908,-103.4459611,a5341aff-53f8-442f-86d3-8d6bf8041241,Organic,CO,81049
280,281,Marcelina Feest,621 Butler Mill Road,1997-04-09,Maryville,2019-01-22T16:40:20.883+05:30,feest.marcelina@hotmail.com,35.689965,-83.922624,c2ae633b-9570-4d47-911f-9c63a9cda997,Facebook,TN,37803
281,282,Breanna Hodkiewicz,3551 50th Street,1962-04-10,Grinnell,2019-03-24T11:32:55.447+05:30,breanna.hodkiewicz@hotmail.com,41.7821158,-92.6880092,629f399c-7c9a-4748-8c7b-fb334dff674b,Organic,IA,50112
282,283,Stanford Feest,7800 Schmeid Road,1961-09-27,Lakeview,2016-08-03T04:11:58.242+05:30,stanford-feest@gmail.com,43.4605346,-85.2398777,dbaa0ee1-5e40-4cb2-9c22-39563d9fe249,Google,MI,48850
283,284,Shyanne Hettinger,36449 Strawberry River Road,1959-11-18,Duchesne,2019-02-15T23:23:35.796+05:30,hettinger.shyanne@yahoo.com,40.1309832,-110.6794079,0ae8883c-3761-4740-8b48-4c265788ac6b,Organic,UT,84021
284,285,Okey Botsford,11168 41st Street Northwest,1970-09-09,Keene,2016-11-02T21:19:47.200+05:30,botsford.okey@hotmail.com,47.9993618,-102.9765214,aa0b3a9c-cf3a-4483-9c18-dcb48078659b,Affiliate,ND,58847
285,286,Pamela Jast,676 Craig Road,1982-03-22,Edgerton,2017-11-26T02:50:56.723+05:30,pamela-jast@hotmail.com,42.90755799999999,-89.06496299999999,d52c9c00-88d6-42de-a748-8bc471588d0f,Organic,WI,53534
286,287,Alverta Reilly,101 U.S. 385,1997-06-30,Boys Ranch,2016-09-25T00:17:27.254+05:30,reilly.alverta@yahoo.com,35.4347041,-102.2610425,b58a0284-6ec6-4eb5-b966-c3256fc6df7f,Google,TX,79010
287,288,Morgan Miller,35213 Oak Springs Road,1973-05-27,Tollhouse,2019-04-12T23:36:58.815+05:30,miller.morgan@gmail.com,37.036569,-119.428604,f7f92bd4-0123-4a70-9119-e5ce97067ed1,Facebook,CA,93667
288,289,Lacey Dickinson,321 County Road 549,2000-03-31,Mullin,2017-11-06T16:45:55.488+05:30,lacey.dickinson@hotmail.com,31.5683718,-98.7032416,8f28556c-3cdc-4947-8ec2-7a3586c28dde,Affiliate,TX,76864
289,290,Lila Marks,4500-4758 State Road 28,1977-09-02,Williamsport,2019-03-22T22:00:22.860+05:30,marks.lila@gmail.com,40.2804507,-87.40699389999999,da4a14a6-62db-431d-8d1a-badc96757ca8,Organic,IN,47993
290,291,Jovan Buckridge,741 Lewis Branch Road,1986-02-28,Marshall,2017-09-29T09:54:59.940+05:30,buckridge-jovan@hotmail.com,35.926761,-82.64889210000001,ad3744c2-c091-4579-b242-0d92788f6ca5,Affiliate,NC,28753
291,292,Krystal Schaden,4501 Well Site Road,1991-06-17,Wasilla,2016-05-23T18:50:01.315+05:30,schaden-krystal@yahoo.com,61.52915400000001,-149.457747,7dd4aef1-210b-4ae1-8daf-46c1b6c2d5e2,Affiliate,AK,99654
292,293,Cornell Connelly,13469-13599 Ivy Avenue,1960-11-03,Greene,2018-01-17T10:51:09.055+05:30,connelly.cornell@yahoo.com,42.8486932,-92.8694371,7e817c07-ab9c-4647-a4a9-3838866ced03,Twitter,IA,50636
293,294,Neil O'Connell,24206 Fairview Road,1974-07-10,Philip,2017-09-22T13:47:01.457+05:30,connell-o-neil@gmail.com,43.8968648,-101.7609158,e5f0f90a-e4d3-4650-9774-3c5b213252f8,Twitter,SD,57567
294,295,Aliyah Pfannerstill,26323 Merced Avenue,1968-01-21,Wasco,2017-02-26T21:12:38.875+05:30,pfannerstill-aliyah@hotmail.com,35.525398,-119.463896,bcdfc205-4166-4596-b9a4-7e096873bde1,Google,CA,93280
295,296,Nellie Heller,256 Yarmouth Road,1965-09-11,Gray,2016-08-31T09:30:38.758+05:30,heller-nellie@yahoo.com,43.8726352,-70.2875686,0d3f727d-9bda-4523-ab05-01f6f199e56f,Facebook,ME,4039
296,297,Ryley Nader,1720 Hicks Street,1962-08-24,Tomball,2017-10-17T01:05:39.514+05:30,nader-ryley@hotmail.com,30.098465,-95.6346049,83de4c60-3d7d-4dd7-bc23-a1469fadbe18,Twitter,TX,77375
297,298,Bernhard Boyer,5766 East Whispering Woods Avenue,1964-03-01,Trapper Creek,2017-02-01T23:45:55.299+05:30,boyer-bernhard@yahoo.com,62.36383000000001,-150.3484531,671b0b1b-c88b-4dc2-9266-50a2543d1bb3,Affiliate,AK,99688
298,299,Delbert Borer,101-199 Durango Lane,1982-10-23,Cabot,2018-01-26T09:32:43.087+05:30,borer.delbert@hotmail.com,40.7840789,-79.7983422,0a38b712-c3d4-4e72-af3b-59c0882794d9,Twitter,PA,16023
299,300,Bryon Lakin,3680 Carroll Ulmer Road,1999-07-14,Valdosta,2016-05-20T12:44:45.606+05:30,bryon.lakin@gmail.com,30.7506,-83.232,bf2d0fc6-4a1e-4b5f-ae4a-4b595e051e5e,Facebook,GA,31601
300,301,Nichole Ledner,1747-1799 120th Street,1998-03-25,Goodell,2018-09-22T18:47:43.021+05:30,ledner-nichole@yahoo.com,42.937593,-93.6410973,8c1e0ecd-a2b4-457c-8244-92efa154975f,Organic,IA,50439
301,302,Aubree Walter,3600-3698 340th Avenue,1984-10-10,Ruthven,2018-04-20T16:10:06.872+05:30,aubree-walter@hotmail.com,43.1187216,-94.9136304,bd605eb7-f3ee-4d34-a052-8f2ccc3e1320,Organic,IA,51358
302,303,Orlando Kovacek,369 Mississippi 30,1974-08-22,Oxford,2018-07-17T01:43:17.213+05:30,kovacek.orlando@hotmail.com,34.3883628,-89.4442464,46867857-8e73-4d5b-a45b-9700a1d1b86e,Facebook,MS,38655
303,304,Emmanuelle Sporer,9601-9697 160th Avenue Northeast,1970-11-12,Pembina,2016-12-17T10:18:34.770+05:30,sporer-emmanuelle@hotmail.com,48.8050359,-97.2062745,15271f36-9add-463a-b563-50c70b347a79,Twitter,ND,58271
304,305,Rebekah Dickinson,180 County Road 22,1967-06-14,Slate Hill,2017-12-08T19:37:34.988+05:30,rebekah-dickinson@hotmail.com,41.3713447,-74.508512,91afb848-af0f-43db-93dd-c65c3a561321,Facebook,NY,10973
305,306,Louie Breitenberg,43 Downing Drive,1980-01-04,Phenix City,2018-08-15T09:44:32.073+05:30,breitenberg-louie@gmail.com,32.3737973,-85.0684674,9e807484-19e7-4721-bbb2-169f511f9566,Twitter,AL,36869
306,307,Vladimir Kuphal,179 Cloverdale Road,1959-06-03,Bremo Bluff,2017-02-14T05:32:36.884+05:30,vladimir.kuphal@yahoo.com,37.7498548,-78.25526839999999,c40db379-3d75-41fc-9d42-79f3899ba5a8,Google,VA,23022
307,308,Kamille Bartell,1961 540th Avenue,1999-08-08,Gibson,2017-01-20T00:29:51.339+05:30,kamille-bartell@gmail.com,41.5099562,-92.4001047,c84df458-5126-414d-863f-cc6297fdff01,Twitter,IA,50104
308,309,Marilou Koss,20716 Whitewood Creek Road,1984-07-22,Sturgis,2018-03-29T01:46:52.116+05:30,marilou-koss@hotmail.com,44.3993806,-103.7008776,b926cb3f-c9fc-4c65-8162-38dc43dd6280,Facebook,SD,57785
309,310,Libby Ledner,12996 Highway 88,1977-05-23,Creston,2017-08-30T08:55:56.527+05:30,ledner-libby@yahoo.com,36.4429932,-81.6218153,803dafbc-a1a8-4e25-9fda-de46036ae25f,Twitter,NC,28615
310,311,Orlo Lueilwitz,228 Back Road,1987-07-10,Rebersburg,2017-11-05T17:00:18.710+05:30,lueilwitz.orlo@yahoo.com,40.9406,-77.4245418,4e524675-04c2-46af-83f5-77bbe6bec2c7,Facebook,PA,16872
311,312,Lauren Lueilwitz,6350 County Lake Road,1960-11-29,Sulligent,2016-12-19T15:15:34.658+05:30,lueilwitz.lauren@yahoo.com,33.7877413,-88.22801779999999,ac927642-8f28-4431-a96e-e6529d3473ab,Affiliate,AL,35586
312,313,Miguel Reynolds,100 Main Street,1960-02-27,Sand Point,2019-02-25T04:41:18.583+05:30,miguel-reynolds@gmail.com,55.294047,-160.6788618,49e3412d-1634-478b-89a1-1700c624ae34,Organic,AK,99661
313,314,Tomas Mraz,42264 269th Street,1984-02-22,Alexandria,2019-01-14T09:13:30.492+05:30,mraz-tomas@gmail.com,43.4903212,-97.743779,6279adf7-cf23-42f5-b8de-0c8fb04f82ca,Facebook,SD,57311
314,315,Autumn Feeney,14329 Road 592,1994-01-22,Bridgeville,2018-11-06T00:29:11.721+05:30,autumn.feeney@hotmail.com,38.731919,-75.501182,b521741e-77cf-4b29-b418-60810f719aa5,Organic,DE,19933
315,316,Judd Hickle,5-31 290th Avenue,1998-05-02,Valentine,2017-08-20T21:09:31.910+05:30,judd-hickle@gmail.com,42.6917144,-100.7440356,ccd56a43-5bf7-4c5a-b103-add2de231560,Affiliate,NE,69201
316,317,Sibyl Bernier,101 West Emerling Avenue,1992-02-18,Akron,2019-01-01T08:47:26.681+05:30,sibyl.bernier@gmail.com,41.0493214,-81.5361166,ee5198dd-8a7c-460a-bad6-c181b039e3de,Affiliate,OH,44301
317,318,Cassandre Daugherty,4998 County Road 16,1973-06-14,Walden,2017-09-08T00:03:31.954+05:30,daugherty.cassandre@gmail.com,40.7486852,-106.6111981,0cd3e1f3-9344-48fc-a5d9-ce13d0a1899b,Affiliate,CO,80480
318,319,Alexa Marvin,520 Willow Bend Lane,1963-11-03,O'Fallon,2019-03-10T06:16:10.577+05:30,alexa.marvin@gmail.com,38.65403999999999,-89.949741,6b17db3f-ed7e-4d22-9b8e-82ca5c56a242,Google,IL,62269
319,320,Adriel Hudson,32548 200th Street Northwest,1972-07-02,Warren,2017-07-27T11:33:44.527+05:30,hudson.adriel@yahoo.com,48.169711,-96.7452053,4262434c-2524-4587-9d70-d58bdd181c9e,Twitter,MN,56762
320,321,Francesca Hammes,292-434 Draper Road,1980-01-10,Roswell,2019-03-17T17:11:16.466+05:30,francesca.hammes@yahoo.com,33.5299639,-104.8391361,6d87d87f-8adf-43b9-9279-c858767da9f8,Organic,NM,88201
321,322,Scot Rippin,5001-5999 County Road 44,1985-03-02,Yuma,2016-05-19T02:54:44.543+05:30,scot-rippin@hotmail.com,40.2052092,-102.7168116,3abf3068-032e-4249-a101-53d631bc2d89,Google,CO,80759
322,323,Deja Schmeler,825 Clonmell Road,1986-02-17,Paulsboro,2019-03-17T19:21:21.983+05:30,deja.schmeler@gmail.com,39.8454451,-75.2502988,5e84e1a8-6b8f-424c-ad62-2ab6ea74916b,Affiliate,NJ,8066
323,324,Ardella Willms,43200 Colorado 109,1994-01-19,Kim,2016-07-11T15:04:40.795+05:30,willms-ardella@yahoo.com,37.6251974,-103.3524315,ffe8a8ad-bece-4e2f-8338-68b4008029ee,Facebook,CO,81049
324,325,Orrin Lemke,4100-4116 Sand Road,1983-04-20,Erie,2018-05-31T12:59:24.237+05:30,lemke-orrin@yahoo.com,41.6501178,-90.1317763,90c6727f-22d4-4d48-82ab-38fbf758f581,Twitter,IL,61250
325,326,Clovis Homenick,1767 Brush Run Road,1993-06-01,Avella,2018-12-11T20:10:02.518+05:30,homenick-clovis@yahoo.com,40.2049537,-80.39586109999999,8960f685-47ae-44e5-9800-475d8ad476c9,Twitter,PA,15312
326,327,Rosario Bradtke,36376 North 170 East Road,1960-08-12,Rankin,2018-11-12T23:58:00.231+05:30,bradtke.rosario@yahoo.com,40.390835,-87.9144398,03e82f2c-67c8-4d52-aa61-427685cf9ebf,Organic,IL,60960
327,328,Merle Blick,4989 Foxen Canyon Road,2000-02-19,Santa Maria,2018-02-19T14:35:44.434+05:30,merle.blick@yahoo.com,34.865119,-120.296285,120be27e-a4fd-467d-a8dd-668b1d5d3e73,Twitter,CA,93454
328,329,Elwin Okuneva,285 Emory Road,1994-09-14,Blaine,2016-08-05T17:00:03.302+05:30,elwin.okuneva@gmail.com,36.1709076,-83.715249,3aa7a7f8-9cff-4ce4-9b93-541d8b4e9dc5,Affiliate,TN,37709
329,330,Edward McClure,11498 County Road 4167,1975-12-24,Hermleigh,2017-05-29T23:03:30.197+05:30,edward.mcclure@gmail.com,32.5653807,-100.8001906,c68f1d72-2cf6-417b-b6b6-c78f40b537ae,Organic,TX,79526
330,331,Max Reynolds,9668-9674 Pleasant Lake Road,1982-01-07,Upson,2019-02-06T21:16:53.239+05:30,max.reynolds@gmail.com,46.3313462,-90.4063331,dc5ee79a-3cec-4b2a-9cba-2428e9ae615f,Affiliate,WI,54565
331,332,Kayley Klein,5674 Old Ridge Trail,1998-03-01,Fairbanks,2018-05-02T08:23:36.749+05:30,kayley.klein@hotmail.com,64.846943,-148.2255821,4e038706-ff5a-45eb-b387-e34dfcdd9cca,Twitter,AK,99709
332,333,Floyd Lehner,27107-27539 Chimney Rock Road,2000-02-07,Inverness,2018-09-11T23:54:00.140+05:30,floyd.lehner@hotmail.com,37.9969555,-122.9928238,ba887c79-d9f3-4923-8801-17ba61ad3b89,Twitter,CA,94937
333,334,Berneice Abbott,71669 639 Avenue,1994-03-23,Humboldt,2018-08-07T07:30:01.930+05:30,abbott-berneice@hotmail.com,40.2127077,-95.8461579,0fb343b4-f139-4719-8c5c-22c1e0f7a2c5,Twitter,NE,68376
334,335,Guy Wiegand,6746-6842 County Road 83,1989-06-23,Flasher,2018-03-29T09:53:16.008+05:30,wiegand.guy@gmail.com,46.4302493,-101.1323048,4e180986-0e60-485b-8fd6-05d3aa734fc3,Facebook,ND,58535
335,336,Wilhelmine Erdman,1229 Shadow Mountain Lane,1962-09-19,Blue Ridge,2017-03-26T13:37:25.406+05:30,wilhelmine.erdman@gmail.com,37.329562,-79.731115,0020c1e2-8b10-43f6-b00f-100059fc0c62,Organic,VA,24064
336,337,Adolph Tillman,6203-6299 Chambers County 053,1961-07-18,Wadley,2017-08-13T16:23:02.399+05:30,tillman.adolph@gmail.com,33.0356797,-85.5411367,3f4ff95a-8c24-4f8e-91dd-3a67863c784c,Facebook,AL,36276
337,338,Ernie Bogan,R3E Camino Court,1990-01-22,Dixon,2016-10-10T11:49:26.534+05:30,bogan.ernie@gmail.com,38.4266745,-121.652151,aae3bdf6-2f1f-4f97-a2b2-3102ba896d32,Google,CA,95620
338,339,Keagan Hirthe,730-800 Jw Warren Road,1979-03-29,East Dublin,2016-10-27T16:04:02.213+05:30,hirthe-keagan@yahoo.com,32.4891393,-82.79339829999999,d02bbd18-9ab0-4744-99cb-81c93bdf2959,Google,GA,31027
339,340,Serenity Wolff,9701-10035 South Iris Road,1975-01-09,Plymouth,2019-01-30T21:05:26.224+05:30,serenity.wolff@hotmail.com,41.3328225,-86.2217687,4c5c01ec-02a6-4627-a7cf-6df5200fda09,Facebook,IN,46563
340,341,Andrew Russel,4501-4517 Alphonse Drive,1982-09-03,Metairie,2016-08-01T01:45:18.720+05:30,russel-andrew@yahoo.com,30.0216907,-90.186703,13624da0-405d-4fc8-a2c0-2e544f186909,Twitter,LA,70006
341,342,Lavinia Harber,3104 County Road 43270,1973-10-11,Powderly,2016-06-15T18:24:14.943+05:30,harber.lavinia@yahoo.com,33.737864,-95.5020739,d70b4a54-7c8c-4ba4-8475-b64774f1c909,Affiliate,TX,75473
342,343,Angus Feest,4511 White Plains Road,1992-04-25,White Plains,2019-01-09T18:27:58.511+05:30,feest-angus@gmail.com,33.474077,-83.04224800000001,2e5fd5be-8453-4624-b752-b8e60d473026,Google,GA,30678
343,344,Ellsworth Stamm,3701-3797 Erieville Road,1982-03-16,Cazenovia,2018-12-20T17:35:30.592+05:30,ellsworth.stamm@gmail.com,42.9046499,-75.78098279999999,f833e64a-3da4-4d54-b62b-8d4b27084ee9,Google,NY,13035
344,345,Jayme Zulauf,8299 Green Road,1993-05-18,Bolivar,2018-01-29T21:14:42.319+05:30,zulauf-jayme@yahoo.com,42.0515048,-78.2052235,0f3b0678-51c4-44af-a4a0-5f72662a6162,Twitter,NY,14715
345,346,Alene Abernathy,188 Victor Padgett,1995-08-04,Monroe,2017-12-16T09:54:57.125+05:30,alene-abernathy@gmail.com,36.4508851,-85.1597474,51dec1fb-613c-4535-a2e0-30812e10663f,Facebook,TN,38573
346,347,Ola Gottlieb,1001 South Main Street,1971-06-25,Rochelle,2019-01-17T23:51:38.825+05:30,gottlieb-ola@gmail.com,41.9092788,-89.05070889999999,4452feb0-d6ff-4b00-86b3-465b81c30d24,Affiliate,IL,61068
347,348,Elmore Weissnat,40523 Line Street,1986-03-11,Le Flore,2017-04-02T16:11:01.509+05:30,weissnat.elmore@gmail.com,34.89559560000001,-94.9734872,b212fadf-e47d-458c-a52c-effbb66226af,Organic,OK,74942
348,349,Agustin Collins,15182 Valentine Road,1981-06-10,Roy,2016-07-03T11:53:49.274+05:30,collins-agustin@gmail.com,47.366296,-108.518454,50643a12-93cc-41c7-8bd4-78183a526186,Facebook,MT,59471
349,350,Quentin Dickinson,2-298 Windmill Hill Trail,1964-06-24,Brookline,2017-02-13T17:24:24.151+05:30,quentin.dickinson@gmail.com,43.0282796,-72.5981097,31304d51-e8df-4d8b-af83-675c8a675bb8,Google,VT,5345
350,351,Maudie Leannon,13981 Perry Road,1991-06-22,Lake Odessa,2016-05-28T01:38:22.925+05:30,maudie.leannon@hotmail.com,42.7842145,-85.2515325,f9042197-971d-4cb3-8eb0-1e085970c47c,Twitter,MI,48849
351,352,Lowell Koelpin,2400-2418 East Colonial Drive,1963-07-25,Orlando,2018-02-06T14:35:59.438+05:30,koelpin-lowell@yahoo.com,28.5522135,-81.35147409999999,1eaf688b-4964-4926-83e7-7073ce38b3c2,Affiliate,FL,32803
352,353,Hulda Hintz,7130 Kochville Road,1970-12-19,Freeland,2018-08-12T10:07:02.529+05:30,hintz.hulda@hotmail.com,43.49627599999999,-84.054371,bb3a0bde-9ee2-44ed-8539-a0f37f0edfe9,Facebook,MI,48623
353,354,Molly Robel,2120 Ln 16 1/2,1984-05-22,Lovell,2018-04-11T17:37:19.628+05:30,robel-molly@hotmail.com,44.7162483,-108.1862576,fbcd6474-329d-4a98-8cc1-3646f01e674d,Facebook,WY,82431
354,355,Jairo Schiller,177-183 Antioch-Shiloh Road,1999-06-21,Pelahatchie,2017-02-05T17:17:39.379+05:30,schiller.jairo@yahoo.com,32.2029844,-89.7955089,33a1f44e-16b3-4a19-847c-99adb21ccbc7,Organic,MS,39145
355,356,Meta Koelpin,3942 8th Drive,1995-07-01,Montello,2018-02-11T00:37:48.211+05:30,meta-koelpin@gmail.com,43.7774483,-89.4570366,51912e97-a50a-4d5c-a774-45c411ed1e2a,Twitter,WI,53949
356,357,Raegan Witting,1102-1162 Judith Gap Road,1984-08-02,Judith Gap,2018-09-29T02:02:47.445+05:30,witting-raegan@gmail.com,46.6066045,-109.5645057,8912c538-1427-43a9-90fb-622e4a46d205,Twitter,MT,59453
357,358,Antonina Rolfson,629 Chipley Street,1983-11-02,Pine Mountain,2016-11-12T15:58:49.850+05:30,antonina.rolfson@hotmail.com,32.8635063,-84.8623672,0081c519-3c46-4ddb-acc4-972fb84f9817,Google,GA,31822
358,359,Mattie Russel,2631 North US Highway 281,1974-08-10,Blanco,2018-01-19T01:36:47.628+05:30,mattie.russel@yahoo.com,30.1279774,-98.483712,be7f334f-8ea9-4024-be91-4a3de3c539c1,Affiliate,TX,78606
359,360,Stuart Wintheiser,5485 County Road 535,1995-09-26,Jackson,2018-08-30T22:38:56.934+05:30,stuart-wintheiser@hotmail.com,37.5581635,-89.535821,c01f555b-b03f-422e-818f-102325a97cce,Google,MO,63755
360,361,Unique Balistreri,5895 North Carolina 90,1971-01-02,Collettsville,2016-06-03T02:41:26.136+05:30,balistreri-unique@gmail.com,35.9969869,-81.6819901,439244a0-2925-4724-a42a-4453cd6ba4a0,Twitter,NC,28611
361,362,Jaqueline Waelchi,8874-9380 Ohio 294,1992-11-15,Harpster,2018-12-17T06:19:40.271+05:30,waelchi-jaqueline@hotmail.com,40.7380401,-83.28694360000001,bcecee0d-a8ef-465d-9bf5-56693c4bb3f4,Affiliate,OH,43323
362,363,Diana Marvin,43521 Va Canada,1983-01-11,King City,2016-12-11T11:27:15.276+05:30,marvin.diana@hotmail.com,36.184963,-121.197168,39dec0c2-c7b4-48e5-9089-99f554c1bc28,Google,CA,93930
363,364,Geovanny Turcotte,2811 Martin Road,1977-12-15,Sheldon,2017-08-01T22:33:15.653+05:30,geovanny.turcotte@hotmail.com,45.3941852,-90.9354789,a44cf74e-8370-4d4c-97ee-ec466d1d0adf,Google,WI,54766
364,365,Sibyl Hettinger,2406 East 23 Road,1978-11-09,Hampton,2018-09-09T15:17:40.287+05:30,sibyl-hettinger@hotmail.com,41.0167821,-97.8283055,6944e477-77cd-40da-97a5-c0bcebc21a1e,Affiliate,NE,68843
365,366,Justina Blanda,301 Fox Lake Lane,1978-10-07,LaFollette,2018-08-08T15:05:01.157+05:30,justina-blanda@yahoo.com,36.2943794,-84.09738039999999,2477ab20-74e7-4bc7-bdfb-ef1f9a055bec,Facebook,TN,37766
366,367,Gaetano Wilderman,2913 Horse Creek Road,1966-12-07,Circle,2018-12-07T02:52:00.524+05:30,gaetano.wilderman@yahoo.com,47.55104499999999,-106.080787,bbf4f6fe-6a41-4e90-99c3-d6b133cbe6e7,Affiliate,MT,59215
367,368,Trudie Wisoky,9505 Meadow Ridge Lane,1995-10-27,Laytonsville,2018-10-09T14:14:59.321+05:30,wisoky.trudie@gmail.com,39.268984,-77.19474199999999,a553c677-5c52-42bd-aa36-9794566ca214,Google,MD,20882
368,369,Alia O'Reilly,274 Knight Road,1990-11-14,Chidester,2019-01-11T13:43:28.156+05:30,reilly-alia-o@hotmail.com,33.6957652,-93.002025,960ac732-6bc5-4765-8b2a-526b64c18c33,Facebook,AR,71726
369,370,Lisette Roberts,10041 Road 785,1970-12-16,Philadelphia,2017-01-26T23:36:12.545+05:30,lisette.roberts@hotmail.com,32.8553266,-88.96096179999999,283cc7f6-6eb9-46a3-8b1d-83d304ca337c,Affiliate,MS,39350
370,371,Kimberly Braun,971 Clay Road,1960-04-02,Skipwith,2017-03-16T08:00:49.849+05:30,braun-kimberly@yahoo.com,36.7202659,-78.5598595,595eccca-6df6-40ed-baf4-27229d3053b8,Twitter,VA,23968
371,372,Meagan Cremin,112 Batchelor Road,1977-12-03,Richlands,2018-07-17T16:23:35.783+05:30,meagan.cremin@yahoo.com,34.78028,-77.626577,312885af-480e-4934-9d0a-ba2ef6a2728a,Facebook,NC,28574
372,373,Dawson Kuvalis,23196 U.S. 84,1990-03-09,Abiquiu,2018-02-21T20:39:38.790+05:30,dawson-kuvalis@gmail.com,36.3934825,-106.4900081,906c359e-4b12-4e2d-854c-6e699b8c9dcc,Google,NM,87510
373,374,Ryleigh Padberg,5115 Ridge Road,1978-09-06,Union Springs,2017-02-15T15:34:28.703+05:30,ryleigh-padberg@hotmail.com,42.8717651,-76.63044459999999,54250111-bd84-4b60-a615-aafe12159139,Affiliate,NY,13160
374,375,Ryder Kunde,8717 Chevallier Drive,1997-11-30,Helena,2018-07-05T07:44:57.708+05:30,kunde-ryder@yahoo.com,46.798863,-112.179823,7bdde967-e152-4077-ad31-cbc70c622866,Google,MT,59602
375,376,Fanny Gutmann,810 Tipton Street,1969-03-13,Lagro,2017-11-19T23:29:41.310+05:30,gutmann.fanny@yahoo.com,40.842401,-85.727317,d037f759-3b10-4ef3-8951-ee6a081fbb51,Twitter,IN,46941
376,377,Prince Quitzon,251 Polish Road,1981-11-22,Great Falls,2018-04-29T03:12:34.710+05:30,prince.quitzon@yahoo.com,47.4690299,-111.448239,aaa7ba57-0690-451c-a2ed-93d7f5bba0f8,Organic,MT,59404
377,378,Corbin Mertz,1899 Higginbotham Highway,1971-03-21,Church Point,2017-10-15T21:58:20.677+05:30,corbin.mertz@hotmail.com,30.326049,-92.203801,b9508d26-20f2-4ef2-9655-7ddd10f15a39,Affiliate,LA,70525
378,379,Theresia Johnston,221 Waltz Mill Road,1984-02-29,Ruffs Dale,2019-02-16T21:52:32.890+05:30,theresia.johnston@yahoo.com,40.18612299999999,-79.67120899999999,225808ae-0d24-4ffd-8a8f-81a6b4786d5c,Google,PA,15679
379,380,Faustino Okuneva,38 Back Shore Road,1982-06-23,Castine,2016-04-25T09:32:30.527+05:30,faustino-okuneva@yahoo.com,44.39979109999999,-68.8100769,23beab8c-be26-4e85-9994-3ea31e21bd9f,Affiliate,ME,4421
380,381,Trudie Koch,27 Noe's Chicken House Road,1987-03-25,Orleans,2017-05-03T08:03:25.589+05:30,trudie.koch@yahoo.com,38.6913194,-86.4017087,a0a575be-1b38-48f8-8c86-74f2cc3d39fa,Twitter,IN,47452
381,382,Thaddeus Lindgren,7231 Northwest 30th Street,1968-12-01,Chiefland,2017-07-04T20:35:53.572+05:30,thaddeus.lindgren@yahoo.com,29.43706,-82.813959,d627c9ba-a473-4f9e-a18c-504ebdd46503,Twitter,FL,32626
382,383,Phoebe Wintheiser,7059-7099 83rd Street Northeast,1974-02-15,Egeland,2017-09-05T02:00:37.622+05:30,wintheiser-phoebe@yahoo.com,48.6167295,-99.1286372,47aa7880-cbb0-4e11-bc1c-275095bf815a,Affiliate,ND,58331
383,384,Tressie Smitham,2425 Oak Forest Road,1958-10-21,Pontotoc,2016-08-18T20:10:55.777+05:30,tressie-smitham@yahoo.com,34.1911408,-89.1202776,bbd0c313-0c2d-448d-bb76-d8e859343dcd,Google,MS,38863
384,385,Veda Raynor,180 Unimak Drive,1995-06-24,False Pass,2016-11-30T02:36:00.889+05:30,veda.raynor@yahoo.com,54.8488896,-163.4073178,915a4dda-a221-4a17-908c-683a7b48f296,Facebook,AK,99583
385,386,Omer Kautzer,95 Alaska 4,1965-02-12,Copper Center,2016-04-28T07:25:58.816+05:30,omer.kautzer@gmail.com,61.2668195,-145.2833742,406a392c-5eef-4192-8fe3-c6ffc28828c9,Affiliate,AK,99573
386,387,Selina O'Hara,11001 Low Gap Road,1987-10-12,Ukiah,2018-04-21T14:40:24.226+05:30,selina.o.hara@gmail.com,39.16605149999999,-123.3810453,26cbda2d-f9d0-4cda-8a52-c7c2a92f3f79,Facebook,CA,95482
387,388,Nicklaus Hahn,2100-2174 350th Street,1990-07-03,Stanhope,2016-10-16T20:06:08.490+05:30,hahn-nicklaus@hotmail.com,42.2818569,-93.7430547,700463d2-dbd5-421d-994b-210b9fec7e24,Facebook,IA,50246
388,389,Mellie Wolf,2730 Road North,1961-03-28,Lawrence,2017-02-08T23:30:30.824+05:30,wolf.mellie@yahoo.com,40.1801095,-98.2324959,060be09d-3027-49f8-8304-dd20164ddda7,Affiliate,NE,68957
389,390,Brenna Hudson,3321 Pleasant Hill View,1972-08-12,Ashton,2018-04-15T01:01:28.263+05:30,brenna.hudson@hotmail.com,44.104079,-111.4923297,90ee70a1-cb44-493f-b258-d9dd91213d82,Organic,ID,83420
390,391,Gilberto Mueller,2594-3538 County Road 76,1984-05-21,Parlin,2017-08-09T03:35:59.489+05:30,gilberto-mueller@gmail.com,38.5209723,-106.6766573,b5c5f823-15be-4ed5-b436-626025e41747,Twitter,CO,81239
391,392,Percival Schuppe,5683 Jay Green Road,1985-04-05,Canton,2019-01-05T15:35:04.883+05:30,schuppe.percival@hotmail.com,34.25811789999999,-84.42085209999999,db65cf7f-d4b2-4bf4-8959-872461c05c8a,Affiliate,GA,30114
392,393,Sigurd Abernathy,4571-4599 Musser Road,1962-10-20,Mancelona,2016-08-24T02:58:39.431+05:30,sigurd-abernathy@yahoo.com,44.895405,-85.01131230000001,7dc6dc28-ddfc-498d-a611-6a9d0ca2c644,Twitter,MI,49659
393,394,Rosario Thiel,184 Lilly Lane,1989-09-06,Lonoke,2016-06-23T23:50:46.938+05:30,thiel-rosario@gmail.com,34.8236058,-91.8405691,47b4fe23-7151-4826-a68d-1dff4fbccf29,Twitter,AR,72086
394,395,Chet Blick,9234-9256 Zebrafinch Avenue,1980-12-30,Brooksville,2018-07-21T10:27:44.480+05:30,chet-blick@yahoo.com,28.6705901,-82.61898,8857af5a-5fb5-4242-b53d-12e72a6e2980,Google,FL,34614
395,396,Alfred Parisian,40300-40398 257th Street,1996-05-30,Mitchell,2016-05-22T17:19:34.209+05:30,parisian-alfred@gmail.com,43.6585004,-98.1352415,24d1d379-d3e9-4f64-96b7-36e9be4bc8e9,Organic,SD,57301
396,397,Lavern Botsford,31002 Johnson Road,1960-05-21,Townville,2016-05-23T22:27:51.866+05:30,lavern.botsford@hotmail.com,41.711713,-79.9304678,6dc06448-3d58-41bd-94df-66c48fbcac58,Twitter,PA,16360
397,398,Norval Collins,14787 Minnesota 108,1999-08-15,Pelican Rapids,2017-11-08T16:03:10.179+05:30,norval-collins@gmail.com,46.5652693,-96.1857107,0d22a725-ed99-42ad-828d-90e4a0e19c98,Organic,MN,56572
398,399,Leilani Sanford,37661 South Kaliak,1977-10-28,Talkeetna,2019-04-08T16:05:36.687+05:30,sanford.leilani@yahoo.com,62.1402087,-149.9117934,85c9c994-4300-4798-b34f-0dde61b597d5,Organic,AK,99676
399,400,Benton Huel,1901-1973 215th Street,1996-01-16,Muscatine,2017-08-10T14:27:49.276+05:30,benton.huel@gmail.com,41.4293833,-91.1865965,2fa0eacf-d58c-4c32-91e9-f8a8504554ac,Affiliate,IA,52761
400,401,Mark Hane,1499 Plank Road,1983-05-11,Robbins,2017-10-22T06:58:39.656+05:30,hane.mark@gmail.com,35.411868,-79.52678,55df44dd-1b31-44d0-97c8-46d94e7027a6,Twitter,NC,27325
401,402,Carmella Cummerata,225 Miller Creek Road,1994-05-31,Batesville,2018-08-26T05:16:14.876+05:30,cummerata-carmella@hotmail.com,35.7831615,-91.6198103,96a01dee-a83c-4c6a-8e09-3b32400e531c,Organic,AR,72501
402,403,Andy Schmeler,171 Jones Road,1987-02-19,Sutton,2019-04-18T10:57:41.728+05:30,andy.schmeler@gmail.com,42.1059992,-71.71592009999999,3d5bb57f-32cf-4e4d-a2f6-8a3d22e921c4,Facebook,MA,1590
403,404,Lolita Ferry,2540 Sharon Court,1995-12-23,Sunderland,2017-10-14T17:20:30.435+05:30,lolita.ferry@hotmail.com,38.643258,-76.558375,fdec1eca-7261-432d-9aba-93c59517624b,Affiliate,MD,20689
404,405,Gwen Ruecker,370 Clark Street Extended,1993-01-03,Groton,2017-12-16T10:03:23.267+05:30,gwen-ruecker@gmail.com,42.607759,-76.354182,6998b0a1-67ec-4a60-83e9-8c21c19f5fa6,Twitter,NY,13073
405,406,Kacie Skiles,46115 269th Street,1993-07-10,Chancellor,2019-03-08T16:03:15.897+05:30,kacie-skiles@yahoo.com,43.4861087,-96.9791156,1fbfb5c9-8eb7-465a-b7a1-81b7ab1a72d0,Affiliate,SD,57015
406,407,Liliane Blanda,7665 Texas 73,1992-01-15,Beaumont,2017-05-15T17:04:47.219+05:30,blanda.liliane@gmail.com,29.8558423,-94.097933,caf3aa4e-ab1b-410a-822b-e8c58db1a89d,Organic,TX,77705
407,408,Drake Beahan,101 South Hickel Highway,1978-06-21,Bettles,2018-01-15T01:54:45.696+05:30,drake.beahan@hotmail.com,66.92456100000001,-151.505773,80700e78-8200-4681-b762-3e866f6f255f,Organic,AK,99726
408,409,Kenyon Watsica,205 Hebert Trailer Park Road,1992-03-02,Lake Charles,2018-04-28T07:19:57.099+05:30,watsica.kenyon@gmail.com,29.9929309,-93.1543835,e1a4bd4c-0c90-4af8-9834-63a01b1b5bfb,Organic,LA,70607
409,410,Donald Dietrich,6192 South Carolina 394,1986-10-26,North,2018-10-03T05:20:39.493+05:30,donald.dietrich@gmail.com,33.601174,-81.15536999999999,8dd0f669-342c-4efc-9841-cae162a920e2,Affiliate,SC,29112
410,411,Ruthe Gibson,4850 Gainey Road,1977-08-09,Fayetteville,2018-05-01T22:40:18.763+05:30,gibson.ruthe@hotmail.com,34.960715,-78.781319,41b3c02c-21ce-4bdc-a026-fe5d8c7480cf,Affiliate,NC,28306
411,412,Earnestine Lockman,2927 Freshwater Road,1964-03-29,Eureka,2018-03-08T03:45:59.879+05:30,earnestine-lockman@hotmail.com,40.758517,-124.049391,81ebb108-aeb9-49b4-9e72-baceddacea58,Facebook,CA,95503
412,413,Joanne Osinski,493 Perins Peak Lane,1976-10-25,Durango,2017-01-25T18:08:03.514+05:30,osinski-joanne@gmail.com,37.288416,-108.003251,42fc86a8-3e7f-481b-a4c8-72c14108c324,Facebook,CO,81301
413,414,Casey Metz,576 Fincher Road,1960-05-17,Canton,2017-10-09T19:45:54.638+05:30,metz.casey@yahoo.com,34.212497,-84.606105,3d95fd26-eacf-445c-b755-3d8e339aeaab,Google,GA,30114
414,415,Orlo Champlin,1245 Jenne Trail Road,1976-12-27,Douglas,2018-12-07T12:51:11.779+05:30,orlo.champlin@gmail.com,43.4571255,-105.4554265,c59e2b66-9a7b-4950-9369-02044e479fc9,Google,WY,82633
415,416,Zoe Bernhard,11443 East Gogomain Road,1981-08-27,Goetzville,2018-11-11T01:37:54.425+05:30,zoe.bernhard@yahoo.com,46.1527482,-84.1175427,de0c99e6-f41a-452f-b415-15f5b1e48415,Affiliate,MI,49736
416,417,Rowan Hyatt,745-813 County Highway 12,1995-11-15,Coulterville,2017-12-25T05:51:56.536+05:30,hyatt.rowan@hotmail.com,38.2322784,-89.6670206,cf763d0a-fb00-4402-9774-89e69cbd0d9c,Google,IL,62237
417,418,Ella Koss,31942-31950 Oak Ridge Parkway,1993-05-13,Bulverde,2018-05-12T14:48:18.142+05:30,koss-ella@hotmail.com,29.7620941,-98.5691174,785aff96-fad3-4a37-9cdb-ee99c3e5a695,Google,TX,78163
418,419,Jaeden Cremin,759 Henry Clay Smith Road,1989-07-24,Franklin,2018-10-21T13:13:51.839+05:30,cremin-jaeden@yahoo.com,36.7177719,-86.44161539999999,3fe93175-5c54-409e-9d1f-356701aa2528,Google,KY,42134
419,420,Crystel Mann,9343 24th Street Northeast,1975-12-16,Tolna,2018-07-01T11:47:34.943+05:30,mann-crystel@yahoo.com,47.7602102,-98.5807946,6be99d26-1f0c-453f-a8b0-49585e80408f,Organic,ND,58380
420,421,Arely Zulauf,16418 E0470 Road,1963-08-06,Fairmont,2017-06-29T16:55:54.330+05:30,zulauf.arely@yahoo.com,36.3361469,-97.635309,2053269a-e7da-4fb0-adaf-dc8f8907665b,Facebook,OK,73736
421,422,Reagan DuBuque,196 Wyatt Way,1969-03-17,Chula,2018-06-27T06:54:35.264+05:30,reagan.dubuque@hotmail.com,31.5882886,-83.4849861,6849a108-4def-4d32-ad38-20359fb5b059,Organic,GA,31733
422,423,Loyce Cole,1106 L Avenue,1992-10-01,Elliott,2018-09-29T07:45:34.703+05:30,loyce-cole@hotmail.com,41.1434785,-95.1535331,897e26ae-2776-4c37-9b54-7a0ec2239ce9,Google,IA,51532
423,424,Earline Gulgowski,7904 State Highway PP,1971-03-01,Puxico,2016-08-23T22:13:31.594+05:30,earline-gulgowski@yahoo.com,36.9492281,-90.1344712,46161233-a85b-41e3-8bf8-b6b8d41e4393,Google,MO,63960
424,425,Enrique Wiegand,7882 Mississippi 1,1978-07-11,Duncan,2018-07-12T12:47:18.276+05:30,wiegand.enrique@hotmail.com,33.999475,-90.8826769,02429136-b7bf-4cd9-992a-22ab26ec14a5,Twitter,MS,38740
425,426,Rollin Ondricka,17283 North Las Vegas Boulevard,1993-03-10,Moapa,2017-01-26T18:14:41.594+05:30,ondricka.rollin@gmail.com,36.4568888,-114.8473813,b0a7cb66-5fc2-4823-9038-d3aeb09ebbba,Facebook,NV,89025
426,427,Chester Koepp,11500 Curtis Road,1991-12-08,Myakka City,2017-10-25T11:20:04.870+05:30,chester-koepp@yahoo.com,27.331667,-82.08469099999999,06706846-f4a1-4946-998b-7bbb5d0b4880,Twitter,FL,34251
427,428,Kennedy Kunde,26701-27699 East Oyler Road,1977-07-07,Ingalls,2018-10-01T08:20:32.685+05:30,kennedy-kunde@gmail.com,38.0299536,-100.3918896,b2baab64-8bff-4071-b482-6cbefa8e0dc2,Facebook,KS,67853
428,429,Andy Skiles,3963 Carter Road,1997-05-24,Juda,2018-01-15T16:12:12.262+05:30,andy-skiles@yahoo.com,42.5574159,-89.5572457,33d6dee0-bd55-4068-b2a4-eea471a1547b,Facebook,WI,53550
429,430,Justine Kertzmann,14262 Martha Redmond Road,1976-11-28,Saucier,2016-08-27T07:21:25.029+05:30,kertzmann.justine@yahoo.com,30.669218,-89.077568,8c6c2aae-55aa-4aff-8520-7966d471b679,Facebook,MS,39574
430,431,Tobin Huels,450 North Old Highway,1973-10-27,Monticello,2017-06-17T13:32:06.312+05:30,tobin.huels@gmail.com,37.8729318,-109.1608253,9ef9608d-e6b0-4b26-b976-3f2b57cb4668,Affiliate,UT,84535
431,432,Lou Runte,36168 South Archy Draw,1996-08-03,Vernal,2016-11-13T09:06:41.951+05:30,lou.runte@gmail.com,39.929032,-109.381367,08c33220-0841-4db6-9435-e88e111f757d,Twitter,UT,84078
432,433,Kim Grant,200-298 Locust Street,1974-05-06,La Veta,2017-02-13T22:08:19.577+05:30,kim.grant@yahoo.com,37.5085713,-105.005597,fe58fa84-ea3b-439d-adb3-eee1ac9e6f7e,Organic,CO,81055
433,434,Domenico Abernathy,1101-1121 Harriett Circle,1992-06-08,Anderson,2018-11-20T05:11:24.344+05:30,domenico.abernathy@gmail.com,34.5488649,-82.6195903,869c785b-8570-455e-a7b2-3f9f7715e8f2,Google,SC,29621
434,435,Allan Runolfsson,8880 County Road 9850,1999-10-16,West Plains,2017-12-11T13:34:46.439+05:30,runolfsson-allan@gmail.com,36.719095,-91.6816223,d302251d-13f1-41d1-a992-7400d04bb4a7,Facebook,MO,65775
435,436,Heber Turner,701-799 250th Street,1989-10-28,Scranton,2016-07-16T18:52:59.773+05:30,turner-heber@gmail.com,41.9937909,-94.4972043,6d405050-f5de-4631-b21b-2610da49861c,Facebook,IA,51462
436,437,Danial Keeling,487 Lone Mountain Road,1982-10-07,Toston,2018-07-19T17:40:32.355+05:30,danial.keeling@yahoo.com,46.12154899999999,-111.597967,1af6d55d-ff37-426c-beee-efab200feebd,Google,MT,59643
437,438,Arvid Hermiston,1133 Hartman Road,1986-08-01,Livermore,2017-08-03T06:53:50.383+05:30,hermiston-arvid@hotmail.com,37.720286,-121.794001,90f04e40-3bfa-4981-ac2f-46141d0333f6,Organic,CA,94551
438,439,Ivah Tromp,26859-27499 188th Avenue Northeast,1985-02-04,Wing,2019-01-12T08:59:02.642+05:30,tromp-ivah@gmail.com,47.0110008,-100.3562825,3fcbe2d9-2f4c-42d5-aad9-4672952cf644,Facebook,ND,58494
439,440,Sarina Bailey,35996 University Avenue Northeast,1986-09-22,Cambridge,2016-12-09T21:38:43.071+05:30,bailey.sarina@gmail.com,45.6197676,-93.2683454,9a4353e5-1701-406c-a74a-020a784e00ab,Google,MN,55008
440,441,Pietro Bogisich,4001-20827 85th Avenue,1975-03-05,Onamia,2018-07-06T01:12:24.830+05:30,pietro-bogisich@hotmail.com,46.1212212,-93.5872875,dc7919fc-ad89-4fd8-83ca-5032b14573b8,Affiliate,MN,56359
441,442,Arch Simonis,651 Cole Road,1997-07-08,Philippi,2019-02-05T07:36:03.538+05:30,arch-simonis@hotmail.com,39.23785,-80.020365,67cc985a-4824-461c-8b80-78c94feb6382,Facebook,WV,26416
442,443,Lisa VonRueden,10168 56th Street Southeast,1981-04-29,Marion,2016-08-28T10:33:45.590+05:30,vonrueden-lisa@yahoo.com,46.5980332,-98.2902184,5a91aec0-d99f-4e93-ba50-0b4d9024228b,Twitter,ND,58466
443,444,Andres Zulauf,8 U.S. 69,1978-02-10,Baxter Springs,2017-05-19T11:30:11.278+05:30,andres-zulauf@yahoo.com,37.0512191,-94.8314747,be90d0fb-07a1-4e8e-851e-820f2561bb2b,Organic,KS,66713
444,445,Claudine McCullough,3860 South Court Street,1992-01-19,Montgomery,2016-12-26T15:39:29.699+05:30,claudine.mccullough@yahoo.com,32.335616,-86.308317,ed90aba5-006f-4c4e-afca-cdfbb16f7caa,Affiliate,AL,36105
445,446,Tre Balistreri,3119 Windmill Drive,1966-12-09,Dayton,2016-06-01T07:44:33.102+05:30,tre-balistreri@hotmail.com,39.733923,-84.050685,de222b23-cb9f-47bb-98ec-3b59e7522eb0,Organic,OH,45432
446,447,Demario Hand,4328 3r Fish Camp Road,1973-02-26,White Oak,2016-10-13T04:20:20.366+05:30,demario-hand@yahoo.com,30.9973976,-81.90707379999999,8f08f1f7-a8fb-4cdd-8220-f74191abad94,Affiliate,GA,31568
447,448,Darian Cremin,9918 Howards Lick Road,1967-08-12,Mathias,2018-06-09T07:02:30.255+05:30,cremin-darian@hotmail.com,38.963328,-78.935407,d9102f1a-a501-45df-8b26-89ea5b00cc97,Organic,WV,26812
448,449,Zetta Nitzsche,2607 Yanez Street,1980-12-21,Donna,2016-12-11T17:47:21.346+05:30,zetta.nitzsche@gmail.com,26.1594226,-98.0375369,f15d9da0-5512-45ab-be7b-9108f738edbe,Organic,TX,78537
449,450,Sincere Waters,11410 Enos Road,1992-02-25,Kingston,2016-12-19T00:53:19.192+05:30,waters-sincere@yahoo.com,33.9896453,-96.7604564,ab7074df-24bd-4872-8a96-b511e7cb5146,Affiliate,OK,73439
450,451,Vernice Schmitt,6 Lake Simond Road,1994-07-03,Tupper Lake,2016-05-01T02:35:13.283+05:30,vernice-schmitt@hotmail.com,44.1881709,-74.432176,0d85a311-f13c-416f-b76a-2752f9edb2ca,Twitter,NY,12986
451,452,Dawn Goldner,12000-12998 County Road 20,1979-02-10,Ovid,2018-04-19T10:50:04.245+05:30,dawn-goldner@yahoo.com,40.8811136,-102.4120101,cdf80548-5dd4-45f7-90ae-f11590be03e0,Affiliate,CO,80744
452,453,Evangeline Reichert,95162 U.S. 87,1981-03-29,Lewistown,2018-02-16T14:39:22.466+05:30,reichert-evangeline@yahoo.com,47.0568583,-109.1692646,6cf74d5b-813a-4929-8d3b-d334e6835b1a,Facebook,MT,59457
453,454,Bobby Kessler,7230-8282 Chambers County 173,1978-10-23,La Fayette,2016-11-10T02:49:44.565+05:30,kessler.bobby@yahoo.com,32.8088943,-85.4291454,07fa64fd-7baa-46cd-b1d5-d3e7e964d0ea,Facebook,AL,36862
454,455,Leonie Crona,6854 Messenger Road,1959-01-20,Valier,2017-04-04T02:38:49.251+05:30,leonie-crona@gmail.com,48.2667954,-112.1198458,8198d5a6-0edf-41b8-9d92-2f288dbfac1c,Twitter,MT,59486
455,456,Rogelio Turner,21115 State Highway Ab,1997-01-31,Burlington Junction,2018-05-19T07:41:55.477+05:30,turner.rogelio@yahoo.com,40.4162433,-95.013586,618cdd57-abfd-42cb-8de2-8cfb434497e9,Affiliate,MO,64428
456,457,Marguerite Huels,19200 Sweet Ola Highway,1966-01-22,Ola,2016-08-19T23:07:20.424+05:30,marguerite-huels@hotmail.com,44.12387349999999,-116.3023244,12a86d59-7479-4869-b4a3-71ae6aa70e32,Facebook,ID,83657
457,458,Elvera Lowe,5150 Highway 78 East,1991-07-10,Graysville,2019-03-16T17:32:12.168+05:30,elvera.lowe@yahoo.com,33.664848,-87.000664,90a0e74a-9679-484c-83c0-43fc076d0939,Twitter,AL,35073
458,459,Anissa Schuppe,1922 South Main Street,1992-08-21,Corry,2017-05-26T21:18:53.016+05:30,anissa.schuppe@yahoo.com,41.898599,-79.740098,7db6a96e-92f8-4e2f-aebe-1489a1835918,Facebook,PA,16407
459,460,Laisha West,1501 Frank Lovell Road,1994-07-22,Clarkesville,2016-12-08T15:25:15.146+05:30,west.laisha@yahoo.com,34.6712327,-83.49263409999999,2f920573-96b4-4eb8-81a5-d49db133ab32,Twitter,GA,30523
460,461,Sid Mills,263 Barrows Ranch Road,1994-06-14,Evergreen,2017-12-09T11:49:42.919+05:30,mills.sid@gmail.com,39.699357,-105.412938,c4f65186-f502-458b-8313-e80ada366226,Organic,CO,80439
461,462,Ellie Oberbrunner,164 Frogtown Estate,1999-05-28,Livingston,2018-05-15T16:01:57.518+05:30,ellie-oberbrunner@yahoo.com,36.4451252,-85.31148429999999,96c7d741-8c0b-4afe-813c-1a9aedbefd93,Affiliate,TN,38570
462,463,Marianna Smith,32792-32798 Greenwood Drive,1991-03-14,New Baltimore,2016-09-19T08:31:29.369+05:30,marianna-smith@gmail.com,42.692484,-82.78239789999999,a867da78-2f95-4286-b7a9-8d4b4ab45dd9,Affiliate,MI,48047
463,464,Madaline Hilll,1252 U.S. 56,1960-02-06,Larned,2017-02-22T13:30:23.027+05:30,madaline.hilll@yahoo.com,38.1628115,-99.1111131,3108adff-202d-45c1-8393-8b95f747ce15,Twitter,KS,67550
464,465,Haskell Graham,7269 North Adams Drive,1964-06-08,Madras,2019-04-18T20:19:44.602+05:30,haskell.graham@gmail.com,44.7408289,-121.1276098,928ef5b3-576e-4762-aa06-194211b35c6f,Twitter,OR,97741
465,466,Myles Deckow,12002 Southwest Kanner Highway,1963-05-18,Indiantown,2018-01-20T13:25:33.282+05:30,myles.deckow@gmail.com,27.013422,-80.423394,4a78bd87-250e-4d54-8f2c-43fd1d86f2d4,Twitter,FL,34956
466,467,Chanel Dare,6590 O Road,1966-11-18,Nebraska City,2017-11-10T00:42:34.334+05:30,dare-chanel@hotmail.com,40.58038200000001,-95.8412306,5eea1b5f-7667-4d32-b021-0854413530b0,Affiliate,NE,68410
467,468,Jensen Swaniawski,520-550 Clay County Road 320,1968-06-28,Qulin,2018-02-08T21:07:21.394+05:30,swaniawski.jensen@hotmail.com,36.50025979999999,-90.3246189,21615eab-466c-41ac-835a-be7fcd681401,Facebook,MO,63961
468,469,Letha Murazik,4001-5147 East 1400th Avenue,1973-06-28,Wheeler,2018-08-14T09:08:20.449+05:30,murazik-letha@gmail.com,39.0543141,-88.27940439999999,08f17851-351e-40ae-9ce0-eb15ef34688b,Organic,IL,62479
469,470,Enrico Graham,11656 Utica Road,1995-05-06,Greenwood,2018-10-03T13:22:36.054+05:30,enrico-graham@gmail.com,38.82139799999999,-75.54764899999999,65926e0d-a748-46e3-929a-fb5f84ba5ad0,Twitter,DE,19950
470,471,Oral Balistreri,3874 El Monte Drive,1985-07-15,Loomis,2016-11-21T21:37:36.130+05:30,balistreri-oral@yahoo.com,38.814901,-121.135696,9ce994c8-3d28-4acc-9b87-d10331af9e58,Facebook,CA,95650
471,472,Gregory Brakus,203 East Barnhill Street,1967-07-14,Williamston,2018-05-02T09:44:54.229+05:30,gregory.brakus@hotmail.com,35.838619,-77.163956,7e34631c-665e-45d8-98a0-e4f80b782c04,Twitter,NC,27892
472,473,Tyler Cremin,653 County Road 105,1983-11-24,Riesel,2019-02-13T21:13:42.896+05:30,cremin.tyler@gmail.com,31.3768988,-96.9819914,e9765835-e3cd-4088-95a7-c98ee687d846,Affiliate,TX,76682
473,474,Reyes Kulas,9190 West 1100 North,1962-05-31,De Motte,2018-06-07T02:57:13.382+05:30,kulas-reyes@yahoo.com,41.174038,-87.22173599999999,32f87001-1e30-49a4-83e6-f9b0be11e42b,Facebook,IN,46310
474,475,Murray Gleason,12197 Cross Fence Trail,1969-12-27,Tyler,2019-01-30T21:37:05.872+05:30,murray.gleason@gmail.com,32.446336,-95.38272,ae1eb2e0-111e-4b3e-a329-77caec18968c,Twitter,TX,75706
475,476,Adalberto Terry,64 Goose Pond Road,1966-05-10,Comer,2016-06-29T18:09:12.265+05:30,adalberto.terry@yahoo.com,34.0320311,-83.1427077,39e557d8-317e-402b-9155-21a98db9f38d,Affiliate,GA,30629
476,477,Winfield Donnelly,5004-5008 Picardy Place,1979-08-15,Raleigh,2018-12-22T18:02:05.769+05:30,winfield.donnelly@hotmail.com,35.8515632,-78.702987,c3278d12-fb46-4f0e-b00c-fe5420ed745b,Google,NC,27612
477,478,Vergie Borer,1215 Kinderhook Road,1966-02-05,Madison,2017-03-12T20:20:13.963+05:30,vergie.borer@hotmail.com,38.3571942,-78.4127535,f1020506-ac25-41e2-b5ac-3299182110fb,Twitter,VA,22727
478,479,Molly Klocko,95 Alaska 4,1968-08-17,Copper Center,2017-04-30T09:10:20.773+05:30,molly-klocko@gmail.com,61.2668195,-145.2833742,fa26812f-6ec7-44b8-8beb-673de8a0c318,Organic,AK,99573
479,480,Crawford Rath,3190-3398 County Road 30 East,1969-08-15,Attica,2017-09-05T20:10:19.501+05:30,crawford.rath@gmail.com,40.2482635,-87.25751629999999,d40effa9-89b2-43ee-acfc-498e6273e6ab,Organic,IN,47918
480,481,Keely O'Conner,308 Pebblecreek Drive,1973-04-06,Mountain Home,2019-03-01T08:21:10.872+05:30,conner-o-keely@gmail.com,36.31394,-92.373129,1e0bc9de-9e89-456d-b663-d8b640bc1455,Google,AR,72653
481,482,Dolores Bins,4466 Arkansas 9,1994-10-13,Carthage,2018-06-19T23:02:40.049+05:30,dolores.bins@yahoo.com,34.0787283,-92.6510928,53a0a445-c65e-4806-9edc-34c4baaa70f7,Twitter,AR,71725
482,483,Magnolia O'Keefe,497 Old Ferguson Town Road,1996-04-06,Young Harris,2017-10-03T08:19:41.210+05:30,keefe-o-magnolia@hotmail.com,34.9490126,-83.80166799999999,46cbe3cf-0dd7-411a-9df2-4001a3e31c9d,Twitter,GA,30582
483,484,Mayra Olson,7934 County Road 56,1970-03-31,Saint Joe,2018-12-21T18:20:30.373+05:30,mayra-olson@yahoo.com,41.3283563,-84.8139396,9273fffa-7d52-41fb-b65d-87a1c64885f7,Google,IN,46785
484,485,Marcelina Moore,1026-1324 Industrial Park,1964-12-15,Mount Jackson,2018-07-23T23:30:39.079+05:30,marcelina-moore@yahoo.com,38.726831,-78.6577884,58cdbd01-50f4-4062-9040-caf86d7c74af,Twitter,VA,22842
485,486,Morris Beahan,7706 Farm Road 1120,1983-11-25,Verona,2018-04-14T08:19:45.717+05:30,beahan-morris@yahoo.com,36.8177783,-93.8447328,eb180a47-5500-4eca-929f-9ab1eb59bd2d,Facebook,MO,65769
486,487,Mike Abernathy,1155 Temples Point Road,1989-10-21,Havelock,2018-06-28T05:52:19.091+05:30,abernathy.mike@hotmail.com,34.886794,-76.79080499999999,20efaa39-099c-434e-ab08-c7672bc4ba15,Affiliate,NC,28532
487,488,Terrence Emmerich,11439-11447 Glenpark Drive Northeast,1977-10-29,Bolivar,2017-11-01T22:50:13.351+05:30,terrence.emmerich@yahoo.com,40.6505745,-81.4352846,076e8412-4423-4611-b2c7-77949875d2bc,Affiliate,OH,44612
488,489,Amya Homenick,7800-8094 Burley,1993-06-29,Township of Branch,2017-12-30T12:00:49.852+05:30,homenick-amya@yahoo.com,44.0510283,-86.0815351,0331b0c1-3c2f-4b31-965b-2909fa5b9fd0,Organic,MI,49402
489,490,Tyreek Runolfsdottir,41 Laurel Lane,1980-01-17,Columbia,2016-06-02T03:08:21.569+05:30,runolfsdottir-tyreek@gmail.com,41.717989,-72.30425199999999,3a317272-4d1e-4115-9249-ee20fb0b6fd3,Affiliate,CT,6237
490,491,Justina Kassulke,3312 National Forest Development Road 215,1997-01-28,Sandpoint,2018-05-05T01:26:50.655+05:30,kassulke.justina@hotmail.com,48.4679556,-116.4196161,997860a2-494c-4bc1-a2d1-3f671cc5cddc,Organic,ID,83864
491,492,Janelle Rutherford,1610 Vz County Road 1313,1975-05-29,Canton,2017-10-05T13:12:39.595+05:30,janelle.rutherford@hotmail.com,32.5672093,-95.7323965,a3c7bf2f-6b1b-4f29-9202-ed67aa00f86b,Google,TX,75103
492,493,May Kerluke,194 Colonial Drive,1963-07-28,Webster,2017-09-19T13:23:22.185+05:30,kerluke.may@hotmail.com,43.223702,-77.527873,c45b3482-0a36-4b1e-be38-80b36e49b4d3,Facebook,NY,14580
493,494,Abdullah Fisher,1206 Georgia 272,1972-09-13,Tennille,2017-07-07T03:28:40.939+05:30,fisher.abdullah@hotmail.com,32.8239852,-82.9221041,97b59c23-e549-4d49-9139-e27c1fb01a7a,Google,GA,31089
494,495,Kamron Senger,14463 Old Macon Road,1987-01-16,Columbus,2016-06-06T19:35:55.059+05:30,senger-kamron@hotmail.com,33.295844,-88.440877,22d4f786-f80d-4504-826a-252e4a941ad9,Google,MS,39701
495,496,Corine Rosenbaum,3701 Applegate Road,1989-04-16,Hope Mills,2016-08-12T03:19:45.154+05:30,rosenbaum.corine@yahoo.com,34.9712724,-78.9891936,86fd437e-0cff-4535-bf10-18add1a664af,Affiliate,NC,28348
496,497,Jennings Ferry,304 Warren Avenue,1997-11-25,Chocowinity,2018-03-01T04:15:21.668+05:30,jennings.ferry@gmail.com,35.463022,-77.113389,cb9364d8-f98e-47dd-939a-c3bd6b5e08a6,Google,NC,27817
497,498,Nickolas Schuster,22828 Highway V,1978-06-09,Myrtle,2018-09-28T01:16:02.866+05:30,schuster.nickolas@yahoo.com,36.507964,-91.3047636,c94037eb-b4e4-4f56-8ec1-fc9b366c6155,Affiliate,MO,65778
498,499,Loyal Wintheiser,2499 Fish Trap Road,1985-11-19,Wise River,2017-05-16T22:27:15.498+05:30,loyal.wintheiser@yahoo.com,45.9087868,-113.26501,3a90e73f-ce38-44da-8aef-a702bb6838f0,Organic,MT,59762
499,500,Madge Friesen,1821 70th Road,1991-04-27,Yates Center,2018-05-01T03:28:22.744+05:30,madge-friesen@gmail.com,37.82054300000001,-95.6682008,00877aae-895d-401a-8d65-db68258305dc,Organic,KS,66783
500,501,Orval Hettinger,5290 Missouri 94,1986-10-25,Marthasville,2017-07-06T00:39:51.552+05:30,hettinger.orval@hotmail.com,38.7003089,-91.2953863,3aec3574-b8b7-42c4-86fe-2eb5be7d0fcc,Google,MO,63357
501,502,Maddison Morar,1567-1573 West Exchange Street,1987-04-26,Akron,2018-04-25T20:45:31.575+05:30,morar-maddison@hotmail.com,41.1057731,-81.564117,94d40e4f-93c0-4838-8513-6bbc8d0d599c,Organic,OH,44313
502,503,Devan Skiles,3272-3348 Colorado Road,1985-09-13,Pomona,2018-09-08T16:08:51.422+05:30,skiles-devan@gmail.com,38.6242147,-95.4527918,2117fe78-f1a6-42bd-b0db-be511531cd50,Organic,KS,66076
503,504,Carlotta Kessler,2315-2347 Pinewood Avenue,1978-07-26,Greenfield,2019-01-01T01:55:52.926+05:30,kessler-carlotta@yahoo.com,41.3111128,-94.4145582,5dea98ee-deec-404c-bb0b-1c2a294ac753,Affiliate,IA,50849
504,505,Isac Cole,4898 Clair Road,1981-05-02,Millport,2018-09-21T23:33:33.190+05:30,isac-cole@gmail.com,42.2345635,-76.83706459999999,7fc94288-d6c6-43b4-bd39-3bf55ff9f6ab,Organic,NY,14864
